name,latitude,longitude,empty_slots,free_bikes,banking,ebikes,last_updated,payment-terminal,renting,returning,slots,uid,timestamp,occupancy_rate
Benjamin Godard - Victor Hugo,48.865983,2.275725,24,11,False,8,1970-01-01 00:00:01.697701920+00:00,False,1,1,35,16107,2023-10-19 08:13:58.839000+00:00,68.57142857142857
André Mazet - Saint-André des Arts,48.85375581057431,2.3390958085656166,38,16,True,7,1970-01-01 00:00:01.697702205+00:00,True,1,1,55,6015,2023-10-19 08:13:58.717000+00:00,69.0909090909091
Faubourg Du Temple - Republique,48.867872484749,2.3648982158072,33,2,True,0,1970-01-01 00:00:01.697702231+00:00,True,1,1,38,11037,2023-10-19 08:13:57.001000+00:00,86.8421052631579
Beaux-Arts - Bonaparte,48.856451985395786,2.334851883351803,6,13,True,6,1970-01-01 00:00:01.697702167+00:00,True,1,1,20,6021,2023-10-19 08:13:57.772000+00:00,30.0
Toudouze - Clauzel,48.87929591733507,2.3373600840568547,18,3,True,3,1970-01-01 00:00:01.697701845+00:00,True,1,1,21,9020,2023-10-19 08:13:57.860000+00:00,85.71428571428571
Charonne - Robert et Sonia Delaunay,48.855907555969,2.3925706744194,17,2,False,1,1970-01-01 00:00:01.697702163+00:00,False,1,1,20,11104,2023-10-19 08:13:58.523000+00:00,85.0
Mairie du 12ème,48.840855311763,2.3875549435616,29,1,False,1,1970-01-01 00:00:01.697702128+00:00,False,1,1,30,12109,2023-10-19 08:13:56.879000+00:00,96.66666666666667
Square Boucicaut,48.85129643366528,2.325061820447445,17,41,True,21,1970-01-01 00:00:01.697702230+00:00,True,1,1,60,7003,2023-10-19 08:13:58.681000+00:00,28.333333333333332
Harpe - Saint-Germain,48.851518815017,2.3436703160405,37,5,True,2,1970-01-01 00:00:01.697702174+00:00,True,1,1,45,5001,2023-10-19 08:13:58.809000+00:00,82.22222222222221
Jouffroy d'Abbans - Wagram,48.881973298352,2.301132157445,35,4,True,0,1970-01-01 00:00:01.697702069+00:00,True,1,1,40,17026,2023-10-19 08:13:58.527000+00:00,87.5
Guersant - Gouvion-Saint-Cyr,48.88287775178599,2.287667370814871,33,0,True,0,1970-01-01 00:00:01.697701696+00:00,True,1,1,36,17041,2023-10-19 08:13:57.567000+00:00,91.66666666666666
Alibert - Jemmapes,48.871044051984,2.3661044619878,52,3,True,1,1970-01-01 00:00:01.697702121+00:00,True,1,1,60,10013,2023-10-19 08:13:57.389000+00:00,86.66666666666667
Caumartin - Provence,48.87442277342655,2.3284685611724854,4,20,True,11,1970-01-01 00:00:01.697702148+00:00,True,1,1,22,9104,2023-10-19 08:13:57.566000+00:00,18.181818181818183
Cassini - Denfert-Rochereau,48.837525839067,2.3360354080796,14,10,True,1,1970-01-01 00:00:01.697702226+00:00,True,1,1,25,14111,2023-10-19 08:13:58.077000+00:00,56.00000000000001
Saint-Sulpice,48.85165383178419,2.3308077827095985,6,15,True,5,1970-01-01 00:00:01.697702039+00:00,True,1,1,21,6003,2023-10-19 08:13:57.718000+00:00,28.57142857142857
Raspail - Varenne,48.853147816545,2.3263905197382,0,18,False,2,1970-01-01 00:00:01.697702152+00:00,False,1,1,18,7004,2023-10-19 08:13:56.561000+00:00,0.0
Lacépède - Monge,48.84389286531899,2.351966388523578,20,1,True,0,1970-01-01 00:00:01.697702067+00:00,True,1,1,23,5110,2023-10-19 08:13:58.383000+00:00,86.95652173913044
Saint-Romain - Cherche-Midi,48.84708159081946,2.321374788880348,7,8,False,2,1970-01-01 00:00:01.697702219+00:00,False,1,1,17,6108,2023-10-19 08:13:57.648000+00:00,41.17647058823529
André Karman - République,48.91039875761846,2.3851355910301213,28,2,False,1,1970-01-01 00:00:01.697701807+00:00,False,1,1,31,33006,2023-10-19 08:13:57.880000+00:00,90.32258064516128
Pierre et Marie Curie - Maurice Thorez,48.81580226360801,2.376804985105991,23,2,False,1,1970-01-01 00:00:01.697702095+00:00,False,1,1,27,42016,2023-10-19 08:13:57.864000+00:00,85.18518518518519
Bois de Vincennes - Gare,48.83602224288688,2.4708339950830287,38,10,True,5,1970-01-01 00:00:01.697702122+00:00,True,1,1,50,41301,2023-10-19 08:13:56.586000+00:00,76.0
Silly - Galliéni,48.835583838706,2.2325500845909,8,16,True,8,1970-01-01 00:00:01.697702206+00:00,True,1,1,25,21010,2023-10-19 08:13:58.509000+00:00,32.0
Le Brun - Gobelins,48.835092787824,2.3534681351338,44,3,True,2,1970-01-01 00:00:01.697702143+00:00,True,1,1,48,13007,2023-10-19 08:13:58.288000+00:00,91.66666666666666
Gare du Nord - Place de Valenciennes,48.879089,2.354235,25,0,True,0,1970-01-01 00:00:01.697702030+00:00,True,1,1,25,10152,2023-10-19 08:13:57.966000+00:00,100.0
Grande Armée - Brunel,48.876116,2.288124,24,37,True,9,1970-01-01 00:00:01.697702216+00:00,True,1,1,62,17038,2023-10-19 08:13:58.667000+00:00,38.70967741935484
Génie - Mozart,48.7949023812189,2.373418360948562,18,1,False,1,1970-01-01 00:00:01.697702180+00:00,False,1,1,19,44012,2023-10-19 08:13:58.467000+00:00,94.73684210526315
Thouin - Cardinal Lemoine,48.84504716661511,2.3494647851273465,12,4,False,4,1970-01-01 00:00:01.697702021+00:00,False,1,1,17,5016,2023-10-19 08:13:57.632000+00:00,70.58823529411765
Froment - Bréguet,48.8570414504784,2.37289470306807,26,17,True,2,1970-01-01 00:00:01.697702195+00:00,True,1,1,43,11025,2023-10-19 08:13:57.587000+00:00,60.46511627906976
Notre-Dame-des-Champs - Stanislas,48.84479928858768,2.329337755887181,3,16,True,11,1970-01-01 00:00:01.697702227+00:00,True,1,1,19,6006,2023-10-19 08:13:58.012000+00:00,15.789473684210526
Morillons - Dantzig,48.83310149953933,2.299380004405976,49,2,False,1,1970-01-01 00:00:01.697702137+00:00,False,1,1,52,15047,2023-10-19 08:13:57.567000+00:00,94.23076923076923
Grenelle - Dr Finlay,48.851315406715976,2.291950285434724,61,10,True,4,1970-01-01 00:00:01.697702138+00:00,True,1,1,71,15028,2023-10-19 08:13:56.454000+00:00,85.91549295774648
Chazelles - Courcelles ,48.879406604954,2.3034455627202988,20,12,True,6,1970-01-01 00:00:01.697702007+00:00,True,1,1,35,17025,2023-10-19 08:13:56.497000+00:00,57.14285714285714
Croulebarde - Corvisart,48.830981659316855,2.3481646925210957,24,9,True,1,1970-01-01 00:00:01.697702151+00:00,True,1,1,34,13101,2023-10-19 08:13:58.538000+00:00,70.58823529411765
Ramponeau - Belleville,48.871031137596,2.379056852114,40,2,True,1,1970-01-01 00:00:01.697702222+00:00,True,1,1,44,20143,2023-10-19 08:13:58.355000+00:00,90.9090909090909
Le Brix et Mesmin - Jourdan,48.82234096593411,2.327861653302471,21,0,False,0,1970-01-01 00:00:01.697702228+00:00,False,1,1,21,14108,2023-10-19 08:13:58.497000+00:00,100.0
Romainville - Vaillant-Couturier,48.86785,2.446748,34,2,False,2,1970-01-01 00:00:01.697702226+00:00,False,1,1,38,31024,2023-10-19 08:13:57.802000+00:00,89.47368421052632
Général Martial Valin - Pont du Garigliano,48.83823094269141,2.270506024360657,2,13,False,5,1970-01-01 00:00:01.697702106+00:00,False,1,1,16,15068,2023-10-19 08:13:57.038000+00:00,12.5
Liberté - Vert-de-Maisons,48.790147809608,2.4328628182411,20,0,True,0,1970-01-01 00:00:01.694836503+00:00,True,0,0,20,47007,2023-10-19 08:13:58.484000+00:00,100.0
Porte de Saint-Ouen - Bessières,48.89792240854517,2.32851451022192,26,13,False,1,1970-01-01 00:00:01.697701924+00:00,False,1,1,42,17044,2023-10-19 08:13:58.248000+00:00,61.904761904761905
Bir Hakeim,48.85384405433352,2.289705348222022,2,29,True,6,1970-01-01 00:00:01.697702163+00:00,True,1,1,33,15026,2023-10-19 08:13:58.207000+00:00,6.0606060606060606
Jules Guesde - Pont du Port à l'Anglais,48.79628807093802,2.417212128639221,2,28,True,1,1970-01-01 00:00:01.697702200+00:00,True,1,1,30,44017,2023-10-19 08:13:56.746000+00:00,6.666666666666667
Cambrai - Benjamin Constant,48.89594736851349,2.381133802246315,39,3,False,1,1970-01-01 00:00:01.697702039+00:00,False,1,1,43,19033,2023-10-19 08:13:58.555000+00:00,90.69767441860465
De Toqueville - Terrasse,48.882428,2.314002,30,0,True,0,1970-01-01 00:00:01.697702083+00:00,True,1,1,30,17048,2023-10-19 08:13:57.790000+00:00,100.0
Michel-Ange - Parent de Rosan,48.84057992369012,2.2584119439125065,20,5,False,1,1970-01-01 00:00:01.697701886+00:00,False,1,1,26,16118,2023-10-19 08:13:58.223000+00:00,76.92307692307693
Lagny - Victor Basch,48.84884147189881,2.426325418925233,10,15,True,1,1970-01-01 00:00:01.697702161+00:00,True,1,1,26,43002,2023-10-19 08:13:57.760000+00:00,38.46153846153847
Serrurier,48.8804934032465,2.39806417375803,17,0,False,0,1970-01-01 00:00:01.697702114+00:00,False,1,1,18,19027,2023-10-19 08:13:56.509000+00:00,94.44444444444444
Théâtre des Amandiers - Palais des sports,48.892648526839,2.2136941552162,13,9,False,5,1970-01-01 00:00:01.697702203+00:00,False,1,1,23,92002,2023-10-19 08:13:56.455000+00:00,56.52173913043478
Louis Lejeune - Barbès,48.81807418981508,2.326700985431672,17,8,False,3,1970-01-01 00:00:01.697701893+00:00,False,1,1,25,21216,2023-10-19 08:13:58.132000+00:00,68.0
Vaugirard - Monsieur le Prince,48.848951441614,2.3411329463124,2,23,True,11,1970-01-01 00:00:01.697702226+00:00,True,1,1,26,6029,2023-10-19 08:13:58.326000+00:00,7.6923076923076925
Rond-point du Dr Albert Schweitzer,48.78980918988166,2.3143940046429634,22,0,False,0,1970-01-01 00:00:01.697702012+00:00,False,1,1,22,22207,2023-10-19 08:13:58.166000+00:00,100.0
Boétie - Ponthieu,48.871417284355,2.3076787590981,0,31,True,15,1970-01-01 00:00:01.697702207+00:00,True,1,1,33,8050,2023-10-19 08:13:57.899000+00:00,0.0
Custine - Ramey,48.888735896947,2.3469526693225,38,2,True,1,1970-01-01 00:00:01.697701949+00:00,True,1,1,41,18015,2023-10-19 08:13:58.755000+00:00,92.6829268292683
Pyrénées - Ménilmontant,48.8693268535238,2.395084574818611,25,0,False,0,1970-01-01 00:00:01.697702104+00:00,False,1,1,26,20035,2023-10-19 08:13:56.652000+00:00,96.15384615384616
Caire - Dussoubs,48.86785342111862,2.349364310503006,32,8,False,4,1970-01-01 00:00:01.697702127+00:00,False,1,1,40,2017,2023-10-19 08:13:57.997000+00:00,80.0
Tour d'Auvergne - Rodier,48.879161,2.343698,15,2,False,2,1970-01-01 00:00:01.697701897+00:00,False,1,1,17,9008,2023-10-19 08:13:58.165000+00:00,88.23529411764706
Assemblée Nationale,48.861411014652,2.3201214185208,40,23,True,7,1970-01-01 00:00:01.697701832+00:00,True,1,1,63,7009,2023-10-19 08:13:57.065000+00:00,63.49206349206349
Dunkerque - Alsace,48.879355,2.358379,19,1,False,1,1970-01-01 00:00:01.697702130+00:00,False,1,1,20,10027,2023-10-19 08:13:57.214000+00:00,95.0
Liard - Amiral Mouchez,48.8214169,2.342167,10,4,True,3,1970-01-01 00:00:01.697702048+00:00,True,1,1,14,14013,2023-10-19 08:13:58.389000+00:00,71.42857142857143
Gabriel Lamé,48.8351212784276,2.385534569621086,4,30,True,5,1970-01-01 00:00:01.697702199+00:00,True,1,1,36,12031,2023-10-19 08:13:56.981000+00:00,11.11111111111111
Las Cases - Bourgogne,48.859091104741,2.3185685276985,2,19,False,4,1970-01-01 00:00:01.697702085+00:00,False,1,1,22,7011,2023-10-19 08:13:57.905000+00:00,9.090909090909092
Félix Ziem - Armand Gauthier,48.88949630486821,2.333393658804396,24,0,False,0,1970-01-01 00:00:01.697702019+00:00,False,1,1,25,18111,2023-10-19 08:13:57.237000+00:00,96.0
Jonquière - Docteur Paul Brousse,48.89479981668399,2.318705212173216,22,15,True,2,1970-01-01 00:00:01.697702200+00:00,True,1,1,40,17010,2023-10-19 08:13:58.615000+00:00,55.00000000000001
Square Louis XVI,48.87320440102894,2.323658830743138,1,27,True,14,1970-01-01 00:00:01.697702131+00:00,True,1,1,29,8016,2023-10-19 08:13:58.198000+00:00,3.4482758620689653
Youri Gagarine - Karl Marx,48.78448485079149,2.35908430069685,22,0,False,0,1970-01-01 00:00:01.697702055+00:00,False,1,1,22,48003,2023-10-19 08:13:57.311000+00:00,100.0
Octave Feuillet - Albéric Magnard,48.86106902949534,2.2730283066630363,6,15,False,11,1970-01-01 00:00:01.697702175+00:00,False,1,1,21,16110,2023-10-19 08:13:58.454000+00:00,28.57142857142857
Ney - Porte de Clignancourt,48.8978867,2.3458001,25,0,False,0,1970-01-01 00:00:01.697702070+00:00,False,0,0,25,18134,2023-10-19 08:13:58.425000+00:00,100.0
Gay Lussac - Saint-Jacques,48.844730256132095,2.341923944866407,8,15,False,11,1970-01-01 00:00:01.697702179+00:00,False,1,1,24,5005,2023-10-19 08:13:58.596000+00:00,33.33333333333333
Place Jean-Spire-Lemaître,48.8468428626593,2.452062070369721,48,1,True,1,1970-01-01 00:00:01.697701941+00:00,True,1,1,50,43009,2023-10-19 08:13:57.224000+00:00,96.0
Place Georges Guillaumin,48.874750203956566,2.301771435325988,14,14,False,9,1970-01-01 00:00:01.697702059+00:00,False,1,1,29,8053,2023-10-19 08:13:58.496000+00:00,48.275862068965516
Bellefond - Poissonnière,48.87759897050706,2.348463758826256,15,2,True,1,1970-01-01 00:00:01.697702081+00:00,True,1,1,17,9001,2023-10-19 08:13:58.330000+00:00,88.23529411764706
Jean Oestreicher - Porte de Champerret,48.88655580065981,2.288640439510346,1,18,False,8,1970-01-01 00:00:01.697702228+00:00,False,1,1,21,17032,2023-10-19 08:13:57.249000+00:00,4.761904761904762
Alexandre Parodi - Quai de Valmy,48.87935941942529,2.366596162319184,22,0,True,0,1970-01-01 00:00:01.697701791+00:00,True,1,1,24,10162,2023-10-19 08:13:58.377000+00:00,91.66666666666666
Ségur - d'Estrées,48.851419978983,2.3097044974566,0,17,False,4,1970-01-01 00:00:01.697702231+00:00,False,1,1,19,7018,2023-10-19 08:13:57.448000+00:00,0.0
Granges aux Belles,48.8761373390584,2.3680844979417,26,1,False,0,1970-01-01 00:00:01.697702148+00:00,False,1,1,27,10115,2023-10-19 08:13:58.530000+00:00,96.29629629629629
Regnault - Patay,48.82435782216384,2.377065159380436,9,54,False,5,1970-01-01 00:00:01.697701936+00:00,False,1,1,63,13118,2023-10-19 08:13:57.962000+00:00,14.285714285714285
Gare Saint-Lazare - Place de Budapest,48.877753,2.327339,20,24,True,13,1970-01-01 00:00:01.697701992+00:00,True,1,1,44,9035,2023-10-19 08:13:58.368000+00:00,45.45454545454545
Edgar Quinet - Raspail,48.83940266673835,2.32971478253603,44,2,True,2,1970-01-01 00:00:01.697702058+00:00,True,1,1,46,14002,2023-10-19 08:13:57.419000+00:00,95.65217391304348
Clignancourt - Ordener,48.891457726153774,2.348636478060487,32,1,True,1,1970-01-01 00:00:01.697702209+00:00,True,1,1,35,18024,2023-10-19 08:13:57.325000+00:00,91.42857142857143
Dunkerque - Rocroy,48.880726,2.351464,23,0,False,0,1970-01-01 00:00:01.697701813+00:00,False,1,1,24,10029,2023-10-19 08:13:57.532000+00:00,95.83333333333334
Abbeville - Faubourg Poissonnière,48.879223,2.349147,10,4,True,2,1970-01-01 00:00:01.697702197+00:00,True,1,1,14,9002,2023-10-19 08:13:58.607000+00:00,71.42857142857143
Boulangers - Cardinal Lemoine,48.8462904,2.3521495,11,9,True,3,1970-01-01 00:00:01.697702087+00:00,True,1,1,20,5022,2023-10-19 08:13:58.028000+00:00,55.00000000000001
Boudreau - Auber,48.87219,2.329423,1,11,False,6,1970-01-01 00:00:01.697702131+00:00,False,1,1,14,9106,2023-10-19 08:13:58.680000+00:00,7.142857142857142
Gare de l'Est - Faubourg-Saint-Martin,48.875642647477,2.3594588041306,30,2,True,1,1970-01-01 00:00:01.697702134+00:00,True,1,1,32,10161,2023-10-19 08:13:58.304000+00:00,93.75
Pereire - Ternes,48.87973954830735,2.288012132048607,40,8,True,5,1970-01-01 00:00:01.697702225+00:00,True,1,1,48,17040,2023-10-19 08:13:57.037000+00:00,83.33333333333334
Douai - Bruxelles,48.88320784122797,2.3308449949028507,25,2,False,2,1970-01-01 00:00:01.697702132+00:00,False,1,1,27,9038,2023-10-19 08:13:57.106000+00:00,92.5925925925926
Champ de Mars - Cler,48.85669155011532,2.306646779179573,19,21,True,3,1970-01-01 00:00:01.697702225+00:00,True,1,1,41,7020,2023-10-19 08:13:58.146000+00:00,46.34146341463415
Quai de l'Horloge - Pont Neuf,48.857058739111,2.3417982839439,7,9,True,4,1970-01-01 00:00:01.697702143+00:00,True,1,1,17,1001,2023-10-19 08:13:58.822000+00:00,41.17647058823529
Gare Saint-Lazare - Isly,48.874777677621296,2.326515804784655,9,16,True,13,1970-01-01 00:00:01.697702191+00:00,True,1,1,27,8009,2023-10-19 08:13:57.717000+00:00,33.33333333333333
Ambroise Rendu - Porte Brunet,48.883667,2.395733,15,2,False,1,1970-01-01 00:00:01.697702202+00:00,False,1,1,17,19105,2023-10-19 08:13:58.442000+00:00,88.23529411764706
Gare de Lyon - Place Louis Armand,48.845515089794,2.3726498446286,21,35,True,12,1970-01-01 00:00:01.697702154+00:00,True,1,1,60,12151,2023-10-19 08:13:58.287000+00:00,35.0
Institut de France,48.857615678565,2.3358313530377,1,15,True,8,1970-01-01 00:00:01.697701978+00:00,True,1,1,17,6001,2023-10-19 08:13:58.432000+00:00,5.88235294117647
Porte Pouchet-Bessières,48.8978765,2.3230632,16,7,False,1,1970-01-01 00:00:01.697701980+00:00,False,1,1,23,17008,2023-10-19 08:13:58.297000+00:00,69.56521739130434
Vigée-Lebrun - Anselme Payen,48.838683941628375,2.3110422492027287,20,3,False,1,1970-01-01 00:00:01.697702194+00:00,False,1,1,24,15112,2023-10-19 08:13:57.984000+00:00,83.33333333333334
Institut du Monde Arabe - Saint-Germain,48.849063299501,2.3558086529374,0,36,True,6,1970-01-01 00:00:01.697702201+00:00,True,1,1,40,5020,2023-10-19 08:13:58.387000+00:00,0.0
Octave Gréard - Tour Eiffel,48.856502977696,2.2931787543289,6,26,True,8,1970-01-01 00:00:01.697702141+00:00,True,1,1,33,7025,2023-10-19 08:13:58.455000+00:00,18.181818181818183
Château - République,48.862923800596,2.4155035614967,17,8,False,3,1970-01-01 00:00:01.697702212+00:00,False,1,1,26,31706,2023-10-19 08:13:58.866000+00:00,65.38461538461539
Chartres - La Charbonnière,48.8847601,2.3534657,33,0,False,0,1970-01-01 00:00:01.697701864+00:00,False,1,1,34,18107,2023-10-19 08:13:57.593000+00:00,97.05882352941177
Lisbonne - Monceau,48.87745567681383,2.309694221419506,3,30,True,17,1970-01-01 00:00:01.697702222+00:00,True,1,1,33,8036,2023-10-19 08:13:56.841000+00:00,9.090909090909092
Moncey - Blanche,48.88006587474148,2.3310810327529907,11,5,False,5,1970-01-01 00:00:01.697702192+00:00,False,1,1,17,9028,2023-10-19 08:13:58.391000+00:00,64.70588235294117
Rochechouart lamartine,48.876719895109,2.344393021854,24,0,True,0,1970-01-01 00:00:01.697701990+00:00,True,0,0,24,9010,2023-10-19 08:13:57.938000+00:00,100.0
Jemmapes - Ecluses Saint-Martin,48.87748519186726,2.3660067468881607,10,4,True,3,1970-01-01 00:00:01.697702115+00:00,True,1,1,15,10025,2023-10-19 08:13:58.486000+00:00,66.66666666666666
Thionville - Ourcq,48.88917613743794,2.383365333080292,18,3,True,3,1970-01-01 00:00:01.697702023+00:00,True,1,1,24,19015,2023-10-19 08:13:58.501000+00:00,75.0
Gare du Nord - Hôpital Lariboisière,48.881949,2.352339,47,1,False,1,1970-01-01 00:00:01.697702118+00:00,False,1,1,49,10107,2023-10-19 08:13:56.827000+00:00,95.91836734693877
Legendre - Clichy,48.88896161855884,2.322528975094376,39,0,True,0,1970-01-01 00:00:01.697702119+00:00,True,1,1,40,17004,2023-10-19 08:13:58.426000+00:00,97.5
Quai de la Seine,48.884492238407525,2.370394170284272,20,3,True,2,1970-01-01 00:00:01.697702163+00:00,True,1,1,24,19003,2023-10-19 08:13:58.301000+00:00,83.33333333333334
Cité Riverin - Château d'Eau,48.87070242355431,2.358739863900845,14,3,True,1,1970-01-01 00:00:01.697702203+00:00,True,1,1,18,10008,2023-10-19 08:13:58.613000+00:00,77.77777777777779
Mutualité,48.848225572724,2.3502873256803,37,0,True,0,1970-01-01 00:00:01.697702138+00:00,True,0,0,37,5018,2023-10-19 08:13:57.225000+00:00,100.0
Rossini - Laffitte,48.87334627510507,2.337980867701675,7,24,False,10,1970-01-01 00:00:01.697702115+00:00,False,1,1,33,9022,2023-10-19 08:13:58.502000+00:00,21.21212121212121
Pyrénées - Emmery,48.872010281270974,2.392039597034455,38,2,False,1,1970-01-01 00:00:01.697702168+00:00,False,1,1,40,20042,2023-10-19 08:13:58.469000+00:00,95.0
Diderot - Reuilly,48.847208456061,2.3861273378134,24,19,True,5,1970-01-01 00:00:01.697702140+00:00,True,1,1,44,12161,2023-10-19 08:13:57.156000+00:00,54.54545454545454
Saint-Ambroise - Parmentier,48.862147844548,2.3772348091006,33,4,True,0,1970-01-01 00:00:01.697702098+00:00,True,1,1,38,11027,2023-10-19 08:13:58.533000+00:00,86.8421052631579
Belidor - Gouvion-Saint-Cyr,48.88022154052015,2.2854680567979813,38,1,True,0,1970-01-01 00:00:01.697702177+00:00,True,1,1,39,17043,2023-10-19 08:13:56.504000+00:00,97.43589743589743
Place Balard,48.836395736424,2.2784192115068,1,36,True,7,1970-01-01 00:00:01.697702160+00:00,True,1,1,22,15056,2023-10-19 08:13:56.707000+00:00,4.545454545454546
Place de Rhin et Danube,48.88192765861766,2.392586767673493,17,0,False,0,1970-01-01 00:00:01.697702119+00:00,False,1,1,17,19026,2023-10-19 08:13:56.645000+00:00,100.0
Roquette - Thiéré,48.85507930579506,2.3733686318721463,18,4,True,0,1970-01-01 00:00:01.697701930+00:00,True,1,1,23,11002,2023-10-19 08:13:57.811000+00:00,78.26086956521739
Berri - Haussmann,48.874746047357135,2.3082953318953514,6,28,False,11,1970-01-01 00:00:01.697702009+00:00,False,1,1,35,8034,2023-10-19 08:13:58.732000+00:00,17.142857142857142
Saint-Maur - Roquette,48.85868877406296,2.383553994571467,41,4,True,3,1970-01-01 00:00:01.697701966+00:00,True,1,1,46,11023,2023-10-19 08:13:58.693000+00:00,89.13043478260869
11 Novembre 1918 - 8 Mai 1945,48.80889533774377,2.5382421165704727,15,21,False,9,1970-01-01 00:00:01.697702189+00:00,False,1,1,36,45003,2023-10-19 08:13:57.421000+00:00,41.66666666666667
Place Du Général De Gaulle,48.8687591,2.4329931,25,0,False,0,1970-01-01 00:00:01.697702152+00:00,False,1,1,26,31009,2023-10-19 08:13:58.588000+00:00,96.15384615384616
Exelmans - Versailles,48.84097491091973,2.264390252530575,29,16,True,8,1970-01-01 00:00:01.697702039+00:00,True,1,1,49,16039,2023-10-19 08:13:57.877000+00:00,59.183673469387756
Pereire - Rennequin,48.88364782887555,2.2952447086572647,19,1,True,0,1970-01-01 00:00:01.697702023+00:00,True,1,1,23,17030,2023-10-19 08:13:56.486000+00:00,82.6086956521739
Port-Royal - Hôpital du Val-de-Grâce,48.837668272811,2.3448138346607,13,4,True,3,1970-01-01 00:00:01.697702199+00:00,True,1,1,18,13001,2023-10-19 08:13:57.497000+00:00,72.22222222222221
Claude Decaen - Cannebière,48.83761417037952,2.397253782195704,26,0,False,0,1970-01-01 00:00:01.697702029+00:00,False,1,1,27,12111,2023-10-19 08:13:58.260000+00:00,96.29629629629629
Gare d'Austerlitz,48.842524,2.364044,6,7,True,4,1970-01-01 00:00:01.697702218+00:00,True,1,1,14,13014,2023-10-19 08:13:58.360000+00:00,42.857142857142854
Desaix - Edgar Faure,48.852804604940296,2.293077029857222,6,5,True,1,1970-01-01 00:00:01.697702142+00:00,True,1,1,12,15067,2023-10-19 08:13:57.394000+00:00,50.0
Delphine Seyrig - Général Leclerc,48.893923963057865,2.39790290594101,47,4,False,1,1970-01-01 00:00:01.697702042+00:00,False,1,1,53,19043,2023-10-19 08:13:58.878000+00:00,88.67924528301887
Panthéon - Valette,48.84702057165222,2.3464982619671075,19,20,False,7,1970-01-01 00:00:01.697702222+00:00,False,1,1,39,5032,2023-10-19 08:13:58.169000+00:00,48.717948717948715
Square Simon Bolivar,48.8750898883217,2.382630407810212,22,1,False,1,1970-01-01 00:00:01.697701894+00:00,False,1,1,24,19101,2023-10-19 08:13:58.161000+00:00,91.66666666666666
Récollets - Square Villemin,48.87503465588394,2.359801238597928,13,3,False,2,1970-01-01 00:00:01.697702129+00:00,False,1,1,17,10016,2023-10-19 08:13:57.481000+00:00,76.47058823529412
Amelot - Saint-Sébastien,48.86114216276092,2.367799618107727,25,4,False,2,1970-01-01 00:00:01.697702093+00:00,False,1,1,30,11047,2023-10-19 08:13:58.352000+00:00,83.33333333333334
Saint-François-Xavier,48.85154484769,2.3146149516106,0,42,True,9,1970-01-01 00:00:01.697702212+00:00,True,1,1,42,7014,2023-10-19 08:13:58.016000+00:00,0.0
Place Marcel Cachin,48.81411442356866,2.39090770483017,0,31,True,4,1970-01-01 00:00:01.697702184+00:00,True,1,1,32,42014,2023-10-19 08:13:57.794000+00:00,0.0
Pyramide - Ecole du Breuil ,48.82237977153955,2.4586871266365056,29,5,False,2,1970-01-01 00:00:01.697702029+00:00,False,1,1,34,12128,2023-10-19 08:13:58.511000+00:00,85.29411764705883
Liège - Moscou,48.8795431,2.3264628,15,2,False,2,1970-01-01 00:00:01.697702+00:00,False,1,1,17,8010,2023-10-19 08:13:58.337000+00:00,88.23529411764706
Mairie de Montreuil,48.86131452758348,2.440614402294159,37,13,True,11,1970-01-01 00:00:01.697702150+00:00,True,1,1,52,31022,2023-10-19 08:13:57.827000+00:00,71.15384615384616
Richard Lenoir - Republique,48.8667175,2.3692541,58,0,True,0,1970-01-01 00:00:01.697702003+00:00,True,1,1,58,11113,2023-10-19 08:13:56.592000+00:00,100.0
Fabre d'Eglantine - Place de la Nation,48.8471116,2.3956204,46,22,True,5,1970-01-01 00:00:01.697702219+00:00,True,1,1,68,12157,2023-10-19 08:13:58.704000+00:00,67.64705882352942
Cimetière de Montmartre,48.886472466142,2.3328901827335,41,2,True,2,1970-01-01 00:00:01.697702159+00:00,True,1,1,43,18003,2023-10-19 08:13:56.471000+00:00,95.34883720930233
Bagnolet - Orteaux,48.85708641027236,2.39841252565384,35,1,True,1,1970-01-01 00:00:01.697702155+00:00,True,1,1,36,20015,2023-10-19 08:13:58.630000+00:00,97.22222222222221
Anatole France - President Roosevelt,48.9155156,2.3814103,17,8,True,7,1970-01-01 00:00:01.697702042+00:00,True,1,1,29,33017,2023-10-19 08:13:58.488000+00:00,58.620689655172406
Henry Farman,48.83372430280548,2.271385453641414,2,14,False,9,1970-01-01 00:00:01.697702208+00:00,False,1,1,16,15042,2023-10-19 08:13:56.527000+00:00,12.5
Jourdain - Place des Grandes Rigoles,48.87403113727167,2.38959476351738,21,0,True,0,1970-01-01 00:00:01.697702104+00:00,True,1,1,22,20112,2023-10-19 08:13:58.253000+00:00,95.45454545454545
Rocher - Laborde,48.87590240712654,2.322616316378116,57,7,True,3,1970-01-01 00:00:01.697701946+00:00,True,1,1,65,8017,2023-10-19 08:13:57.456000+00:00,87.6923076923077
Fontenay - Libération,48.84780306364685,2.445141971111298,24,1,False,1,1970-01-01 00:00:01.697702214+00:00,False,1,1,25,43008,2023-10-19 08:13:58.278000+00:00,96.0
Grands Moulins de Pantin,48.89738369720229,2.395998537540436,35,13,False,8,1970-01-01 00:00:01.697702228+00:00,False,1,1,50,19044,2023-10-19 08:13:57.756000+00:00,70.0
Gambetta - Saint Fargeau,48.871244610447015,2.40390568971634,23,1,False,0,1970-01-01 00:00:01.697702103+00:00,False,1,1,24,20037,2023-10-19 08:13:58.356000+00:00,95.83333333333334
Cimetière de Fontenay-sous-Bois,48.84706173362218,2.4787822365760808,14,1,False,1,1970-01-01 00:00:01.697701765+00:00,False,1,1,15,41209,2023-10-19 08:13:57.077000+00:00,93.33333333333333
Gabriel Péri - Francisco Ferrer,48.88633710236977,2.407338917255402,12,3,False,1,1970-01-01 00:00:01.697701890+00:00,False,1,1,18,33102,2023-10-19 08:13:58.390000+00:00,66.66666666666666
Place de la Reine Astrid,48.864920982538,2.3025491823859,9,45,True,23,1970-01-01 00:00:01.697702232+00:00,True,1,1,54,8045,2023-10-19 08:13:58.281000+00:00,16.666666666666664
Lucie Aubrac - Fort,48.818144834008976,2.271184623241425,29,1,True,1,1970-01-01 00:00:01.697701771+00:00,True,1,1,30,21312,2023-10-19 08:13:57.741000+00:00,96.66666666666667
Pajol - Place Herbert,48.8927825,2.3635598,35,2,True,0,1970-01-01 00:00:01.697702224+00:00,True,1,1,39,18011,2023-10-19 08:13:58.292000+00:00,89.74358974358975
Fédération - Suffren,48.852828153442,2.2978776320815,18,5,True,0,1970-01-01 00:00:01.697701935+00:00,True,1,1,25,15105,2023-10-19 08:13:58.022000+00:00,72.0
Hôpital Européen Georges Pompidou ,48.83769531916335,2.275374233722687,1,63,False,11,1970-01-01 00:00:01.697702212+00:00,False,1,1,64,15104,2023-10-19 08:13:57.656000+00:00,1.5625
Concorde - Stalingrad,48.7985844,2.3821302,31,4,True,3,1970-01-01 00:00:01.697702061+00:00,True,1,1,35,44006,2023-10-19 08:13:58.674000+00:00,88.57142857142857
Carducci - Place Hannah Arendt,48.8774366815158,2.3860743641853337,25,2,False,1,1970-01-01 00:00:01.697702160+00:00,False,1,1,27,19120,2023-10-19 08:13:57.381000+00:00,92.5925925925926
Saint-Jacques - Val de Grâce,48.8417514,2.3413893,6,11,False,5,1970-01-01 00:00:01.697702172+00:00,False,1,1,19,5004,2023-10-19 08:13:56.651000+00:00,31.57894736842105
Manin - Carrières d'Amérique,48.88467214209463,2.391969859600068,17,3,False,1,1970-01-01 00:00:01.697701975+00:00,False,1,1,20,19103,2023-10-19 08:13:58.261000+00:00,85.0
Victor Hugo - Jeanne Jugan,48.84394906403183,2.415081394834419,26,1,False,1,1970-01-01 00:00:01.697701798+00:00,False,1,1,28,12114,2023-10-19 08:13:57.965000+00:00,92.85714285714286
Porte de Vanves,48.828012849445,2.3056878894567,21,9,False,3,1970-01-01 00:00:01.697702229+00:00,False,1,1,32,14138,2023-10-19 08:13:58.309000+00:00,65.625
Place de la République - Voltaire,48.866830968942,2.3654810339212,16,1,True,1,1970-01-01 00:00:01.697702109+00:00,True,1,1,19,11046,2023-10-19 08:13:57.476000+00:00,84.21052631578947
Conservatoire de Musique,48.77093586667601,2.40340143442154,3,22,False,4,1970-01-01 00:00:01.697702198+00:00,False,1,1,25,46003,2023-10-19 08:13:57.947000+00:00,12.0
Gare de l'Est - Fidélité,48.874575,2.356796,7,5,False,2,1970-01-01 00:00:01.697702201+00:00,False,1,1,15,10017,2023-10-19 08:13:56.924000+00:00,46.666666666666664
Championnet - Vauvenargues,48.89401874744574,2.3319872841238976,28,2,True,2,1970-01-01 00:00:01.697702182+00:00,True,1,1,33,18028,2023-10-19 08:13:58.361000+00:00,84.84848484848484
Buisson Saint-Louis - Saint-Maur,48.87174684930295,2.3722528328789854,19,0,False,0,1970-01-01 00:00:01.697701670+00:00,False,1,1,19,10024,2023-10-19 08:13:56.852000+00:00,100.0
Place Albert Kahn,48.89579697978,2.3455855841349,0,0,True,0,1970-01-01 00:00:01.688374764+00:00,True,0,0,0,18031,2023-10-19 08:13:57.312000+00:00,
Gare du Nord - Denain,48.879595787608,2.3544725775719,19,0,True,0,1970-01-01 00:00:01.697702030+00:00,True,1,1,20,10153,2023-10-19 08:13:58.487000+00:00,95.0
Lecourbe - Jean Maridor,48.83796366147599,2.2877392172813416,11,7,False,2,1970-01-01 00:00:01.697702093+00:00,False,1,1,19,15054,2023-10-19 08:13:57.734000+00:00,57.89473684210527
Grenelle - Violet,48.84993035512154,2.294612042605877,5,29,True,6,1970-01-01 00:00:01.697702202+00:00,True,1,1,35,15106,2023-10-19 08:13:58.142000+00:00,14.285714285714285
Repos - Cimetière du Père Lachaise,48.859358523593,2.3896131366845,33,0,True,0,1970-01-01 00:00:01.697702205+00:00,True,1,1,33,20131,2023-10-19 08:13:58.573000+00:00,100.0
Mouton Duvernet - Général Leclerc,48.831632518292565,2.3293121159076686,37,2,True,2,1970-01-01 00:00:01.697702012+00:00,True,1,1,39,14008,2023-10-19 08:13:57.730000+00:00,94.87179487179486
Enghien - Faubourg Poissonnière,48.872420063053,2.3483952362828,11,20,False,5,1970-01-01 00:00:01.697702133+00:00,False,1,1,33,10042,2023-10-19 08:13:58.462000+00:00,33.33333333333333
Place Robert Guillemard,48.836191728066666,2.2811267160086417,5,19,False,2,1970-01-01 00:00:01.697702193+00:00,False,1,1,24,15110,2023-10-19 08:13:58.328000+00:00,20.833333333333336
Raspail - Chomel,48.852233164303,2.3266580700874,4,44,True,18,1970-01-01 00:00:01.697702145+00:00,True,1,1,49,7101,2023-10-19 08:13:58.425000+00:00,8.16326530612245
Marc Sangnier - Porte de Vanves,48.825218683556734,2.3107116669416428,17,4,False,1,1970-01-01 00:00:01.697702053+00:00,False,1,1,21,14106,2023-10-19 08:13:57.858000+00:00,80.95238095238095
Etienne Jodelle - Saint Ouen,48.88794016394694,2.326124420314341,30,0,False,0,1970-01-01 00:00:01.697702135+00:00,False,1,1,33,18046,2023-10-19 08:13:58.234000+00:00,90.9090909090909
Marcelin Berthelot,48.8415473058801,2.233161628246308,22,5,False,1,1970-01-01 00:00:01.697702168+00:00,False,1,1,27,21006,2023-10-19 08:13:57.865000+00:00,81.48148148148148
Guy Môquet - Etienne Dolet,48.81527009991819,2.298078276995073,20,3,False,2,1970-01-01 00:00:01.697702230+00:00,False,1,1,23,22406,2023-10-19 08:13:56.761000+00:00,86.95652173913044
Jean Jaurès - Presles,48.90713441498779,2.396005728053061,20,9,True,8,1970-01-01 00:00:01.697702232+00:00,True,1,1,30,35002,2023-10-19 08:13:56.464000+00:00,66.66666666666666
Boissière - Etienne Dolet,48.876111,2.4677312,18,2,False,1,1970-01-01 00:00:01.697702112+00:00,False,1,1,21,31102,2023-10-19 08:13:58.447000+00:00,85.71428571428571
Edouard Tremblay - Julian Grimaux,48.781383825117,2.3723508417606,26,4,False,4,1970-01-01 00:00:01.697701764+00:00,False,1,1,30,44013,2023-10-19 08:13:57.778000+00:00,86.66666666666667
Bertie Albrecht - Hoche,48.87614039826388,2.301303138307601,17,15,True,9,1970-01-01 00:00:01.697702170+00:00,True,1,1,32,8054,2023-10-19 08:13:56.826000+00:00,53.125
Sibelle - Alésia,48.826701758539215,2.3384983465075493,24,1,False,1,1970-01-01 00:00:01.697701712+00:00,False,1,1,25,14012,2023-10-19 08:13:58.686000+00:00,96.0
Hôtel de Ville de Boulogne Billancourt,48.83495885166784,2.241680324077606,10,15,True,5,1970-01-01 00:00:01.697702159+00:00,True,1,1,26,21005,2023-10-19 08:13:56.505000+00:00,38.46153846153847
Cevennes - Bergers,48.84240765130395,2.281037718057633,21,7,True,0,1970-01-01 00:00:01.697702143+00:00,True,1,1,29,15109,2023-10-19 08:13:58.302000+00:00,72.41379310344827
Molière - République,48.81111581390707,2.314573862444816,26,3,False,1,1970-01-01 00:00:01.697702147+00:00,False,1,1,30,21209,2023-10-19 08:13:58.475000+00:00,86.66666666666667
Chevaleret - Tolbiac,48.82941,2.375934,2,19,True,0,1970-01-01 00:00:01.697701897+00:00,True,1,1,21,13053,2023-10-19 08:13:58.079000+00:00,9.523809523809524
Hoche - Jean Lolive,48.89110239200789,2.402843534946442,23,0,True,0,1970-01-01 00:00:01.697702120+00:00,True,1,1,24,35010,2023-10-19 08:13:58.089000+00:00,95.83333333333334
David Weill - Parc Montsouris,48.8210923742561,2.333725690841675,21,1,True,1,1970-01-01 00:00:01.697702140+00:00,True,1,1,22,14124,2023-10-19 08:13:57.024000+00:00,95.45454545454545
Hôtel de Ville de Nanterre,48.89237189825042,2.205548956990242,26,11,True,4,1970-01-01 00:00:01.697702163+00:00,True,1,1,38,92008,2023-10-19 08:13:56.660000+00:00,68.42105263157895
Marcadet - Barbès,48.890451120965,2.3490573929687,34,0,True,0,1970-01-01 00:00:01.697701878+00:00,True,1,1,37,18022,2023-10-19 08:13:58.290000+00:00,91.8918918918919
Vaneau - Sèvres,48.84856323305935,2.3204218259345537,26,8,False,6,1970-01-01 00:00:01.697702145+00:00,False,1,1,35,7002,2023-10-19 08:13:58.467000+00:00,74.28571428571429
Jean Jaurès - Salvador Allende,48.821475594736775,2.3026576638221745,42,1,False,1,1970-01-01 00:00:01.697702052+00:00,False,1,1,43,22402,2023-10-19 08:13:58.310000+00:00,97.67441860465115
François Debergue - Croix de Chavaux,48.85742170807208,2.437578141689301,55,2,True,1,1970-01-01 00:00:01.697702144+00:00,True,1,1,57,31008,2023-10-19 08:13:57.434000+00:00,96.49122807017544
Nationale - Place Jules Guesde,48.82753962462998,2.2416052222251897,14,9,False,3,1970-01-01 00:00:01.697702182+00:00,False,1,1,23,21015,2023-10-19 08:13:57.472000+00:00,60.86956521739131
Gabriel Péri - Danielle Casanova,48.790114,2.4025777,7,13,True,1,1970-01-01 00:00:01.697701783+00:00,True,1,1,20,44003,2023-10-19 08:13:58.502000+00:00,35.0
Route de la Muette - Porte de Neuilly,48.8798926,2.2587671,30,17,True,4,1970-01-01 00:00:01.697702151+00:00,True,1,1,50,16122,2023-10-19 08:13:58.208000+00:00,60.0
Carnot - Pâquerettes,48.79592939432515,2.4261841177940373,14,12,False,0,1970-01-01 00:00:01.697702069+00:00,False,1,1,26,41404,2023-10-19 08:13:58.489000+00:00,53.84615384615385
Tertres - Fontaine,48.78755365471565,2.306235730648041,27,1,False,1,1970-01-01 00:00:01.697702042+00:00,False,1,1,28,22203,2023-10-19 08:13:58.236000+00:00,96.42857142857143
Gare Rer de Fontenay sous Bois,48.8436279,2.4630465,60,1,True,1,1970-01-01 00:00:01.697702200+00:00,True,1,1,61,41202,2023-10-19 08:13:58.400000+00:00,98.36065573770492
Raspail - Manufacture des Oeillets,48.8094458,2.3903009,8,23,True,6,1970-01-01 00:00:01.697702231+00:00,True,1,1,32,42021,2023-10-19 08:13:57.052000+00:00,25.0
Lucie Aubrac - Franklin,48.86223916006812,2.4435862898826604,32,3,True,2,1970-01-01 00:00:01.697702190+00:00,True,1,1,36,31016,2023-10-19 08:13:57.517000+00:00,88.88888888888889
Place de l'Eglise - Vitry-sur-Seine,48.791922819921815,2.395057752728462,2,25,False,1,1970-01-01 00:00:01.697702071+00:00,False,1,1,28,44004,2023-10-19 08:13:56.558000+00:00,7.142857142857142
Noisy le Sec - Jean-Baptiste Clément,48.87451538963655,2.415283620357514,19,1,False,1,1970-01-01 00:00:01.697701709+00:00,False,1,1,22,31708,2023-10-19 08:13:56.961000+00:00,86.36363636363636
Marcelle - Thalie,48.8835462,2.4137883,18,0,True,0,1970-01-01 00:00:01.697702180+00:00,True,1,1,20,35020,2023-10-19 08:13:57.264000+00:00,90.0
Henri Ste-Claire Déville - Paul Héroult,48.892663,2.172411,14,10,False,6,1970-01-01 00:00:01.697702096+00:00,False,1,1,24,25003,2023-10-19 08:13:58.537000+00:00,58.333333333333336
Louis Lumière - Porte de Bagnolet,48.86431136000005,2.4105210229754443,19,1,False,1,1970-01-01 00:00:01.697702074+00:00,False,1,1,20,20115,2023-10-19 08:13:56.614000+00:00,95.0
Paris - Emile Zola,48.854898095789295,2.4186685681343083,23,5,True,2,1970-01-01 00:00:01.697702136+00:00,True,1,1,30,31003,2023-10-19 08:13:58.417000+00:00,76.66666666666667
Victor Hugo - Galliéni,48.83802015441127,2.2460845112800603,21,10,True,2,1970-01-01 00:00:01.697702108+00:00,True,1,1,34,21008,2023-10-19 08:13:56.512000+00:00,61.76470588235294
Victoire - Chaussée d'Antin,48.8750657910044,2.3316738009452824,3,21,True,5,1970-01-01 00:00:01.697702170+00:00,True,1,1,24,9116,2023-10-19 08:13:58.423000+00:00,12.5
Proudhon - Président Wilson,48.906442763495,2.3584905266762,3,26,False,12,1970-01-01 00:00:01.697702205+00:00,False,1,1,30,32001,2023-10-19 08:13:57.495000+00:00,10.0
Square Georges Melies,48.84070239213081,2.409667745232582,16,24,False,5,1970-01-01 00:00:01.697702215+00:00,False,1,1,40,12154,2023-10-19 08:13:57.507000+00:00,40.0
Galilée - Kléber,48.86741186571367,2.290781380114821,12,20,True,14,1970-01-01 00:00:01.697702088+00:00,True,1,1,32,16008,2023-10-19 08:13:57.951000+00:00,37.5
Richard Lenoir - Jean-Pierre Timbaud,48.86580427668637,2.369337074966926,33,2,True,2,1970-01-01 00:00:01.697702093+00:00,True,1,1,36,11039,2023-10-19 08:13:58.252000+00:00,91.66666666666666
Legendre - Dulong,48.8853251694029,2.316423766314984,18,2,True,2,1970-01-01 00:00:01.697701925+00:00,True,1,1,23,17013,2023-10-19 08:13:58.168000+00:00,78.26086956521739
Bosquet - Saint-Dominique,48.85865170952645,2.303716580234576,3,22,True,2,1970-01-01 00:00:01.697702206+00:00,True,1,1,28,7021,2023-10-19 08:13:58.401000+00:00,10.714285714285714
Chemin Vert - Saint-Maur,48.86112461407359,2.381299026310444,42,1,True,0,1970-01-01 00:00:01.697702069+00:00,True,1,1,45,11026,2023-10-19 08:13:58.263000+00:00,93.33333333333333
Quai Panhard et Levassor,48.82837482809675,2.384273745805574,0,56,True,16,1970-01-01 00:00:01.697702094+00:00,True,1,1,57,13050,2023-10-19 08:13:56.601000+00:00,0.0
Square du Théâtre du Garde-Chasse,48.881287375060616,2.420119643211365,48,1,False,1,1970-01-01 00:00:01.697702013+00:00,False,1,1,50,32604,2023-10-19 08:13:56.839000+00:00,96.0
Botzaris - Parc des Buttes Chaumont,48.877951,2.381464,19,0,False,0,1970-01-01 00:00:01.697701924+00:00,False,1,1,20,19024,2023-10-19 08:13:58.414000+00:00,95.0
Faubourg Montmartre - La Fayette,48.87525454905335,2.340853661298752,25,9,True,3,1970-01-01 00:00:01.697702198+00:00,True,1,1,35,9014,2023-10-19 08:13:57.553000+00:00,71.42857142857143
Joseph Liouville - Croix Nivert,48.844835471244416,2.297508493065834,57,7,True,0,1970-01-01 00:00:01.697702144+00:00,True,1,1,64,15021,2023-10-19 08:13:58.652000+00:00,89.0625
Place Madeleine Daniélou,48.883498,2.282015,32,10,False,1,1970-01-01 00:00:01.697702225+00:00,False,1,1,42,17105,2023-10-19 08:13:58.205000+00:00,76.19047619047619
Estrapade - Ulm,48.84512772828039,2.3454568170361734,5,11,False,5,1970-01-01 00:00:01.697702083+00:00,False,1,1,16,5012,2023-10-19 08:13:57.069000+00:00,31.25
Parmentier - République,48.8644954,2.3750124,44,4,True,3,1970-01-01 00:00:01.697702088+00:00,True,1,1,50,11105,2023-10-19 08:13:57.965000+00:00,88.0
Lieutenant Chauré - Etienne Marey,48.86746195408435,2.405970990657807,18,1,True,1,1970-01-01 00:00:01.697702188+00:00,True,1,1,20,20134,2023-10-19 08:13:56.989000+00:00,90.0
Cujas - Saint-Michel,48.848191348584,2.341831654854,11,7,True,2,1970-01-01 00:00:01.697702130+00:00,True,1,1,19,5106,2023-10-19 08:13:57.777000+00:00,57.89473684210527
Flandre - Alphonse Karr,48.89465,2.381868,24,2,True,2,1970-01-01 00:00:01.697702012+00:00,True,1,1,26,19008,2023-10-19 08:13:58.373000+00:00,92.3076923076923
Larmeroux - Baudelaire,48.816939911292,2.2809894804846,23,1,False,1,1970-01-01 00:00:01.697702180+00:00,False,1,1,29,21701,2023-10-19 08:13:57.979000+00:00,79.3103448275862
Jean-François Lépine - Stephenson,48.88611466796807,2.356855627529275,19,0,True,0,1970-01-01 00:00:01.697701968+00:00,True,1,1,22,18009,2023-10-19 08:13:58.549000+00:00,86.36363636363636
Messine - Place Du Pérou,48.87544803396074,2.315508019010038,0,12,True,4,1970-01-01 00:00:01.697701941+00:00,True,1,1,12,8026,2023-10-19 08:13:57.996000+00:00,0.0
Beffroy,48.886591074488,2.261394560337067,6,19,True,7,1970-01-01 00:00:01.697702187+00:00,True,1,1,26,22003,2023-10-19 08:13:57.193000+00:00,23.076923076923077
Molitor - Chardon-Lagache,48.84520880183234,2.2656840831041336,14,19,True,2,1970-01-01 00:00:01.697702070+00:00,True,1,1,34,16038,2023-10-19 08:13:58.508000+00:00,41.17647058823529
Général De Gaulle - Alouette,48.839109,2.4175664,26,0,True,0,1970-01-01 00:00:01.697702072+00:00,True,1,1,26,41601,2023-10-19 08:13:58.329000+00:00,100.0
Abbé Carton - Plantes,48.827673823165846,2.320918142795563,24,1,False,1,1970-01-01 00:00:01.697702080+00:00,False,1,1,25,14110,2023-10-19 08:13:58.186000+00:00,96.0
Marie-Georges Picquart - Pereire,48.88863669349711,2.3111706599593163,18,14,False,9,1970-01-01 00:00:01.697702220+00:00,False,1,1,32,17125,2023-10-19 08:13:58.583000+00:00,56.25
Sablons - Georges Mandel,48.863875,2.28189,26,10,False,1,1970-01-01 00:00:01.697702044+00:00,False,1,1,38,16108,2023-10-19 08:13:56.488000+00:00,68.42105263157895
Gare RER de Vincennes,48.847563015126106,2.433383166790009,7,41,False,23,1970-01-01 00:00:01.697702219+00:00,False,1,1,51,43005,2023-10-19 08:13:58.341000+00:00,13.725490196078432
Villette - Belleville,48.8726877314,2.376461327076,40,4,True,3,1970-01-01 00:00:01.697702229+00:00,True,1,1,48,19032,2023-10-19 08:13:58.116000+00:00,83.33333333333334
Théophile Gautier - François Millet,48.85034821320644,2.273029983043671,16,12,False,0,1970-01-01 00:00:01.697702217+00:00,False,1,1,30,16136,2023-10-19 08:13:57.758000+00:00,53.333333333333336
Edouard Vaillant - Galliéni,48.858462881661,2.4147954583168,41,6,False,2,1970-01-01 00:00:01.697702221+00:00,False,1,1,49,31707,2023-10-19 08:13:57.604000+00:00,83.6734693877551
Marché Secrétan,48.88125496379482,2.373463287949562,23,1,True,0,1970-01-01 00:00:01.697702177+00:00,True,1,1,26,19022,2023-10-19 08:13:57.300000+00:00,88.46153846153845
Quai de l'Aisne - Général Leclerc,48.895713,2.400571,12,12,True,6,1970-01-01 00:00:01.697702056+00:00,True,1,1,27,35005,2023-10-19 08:13:57.832000+00:00,44.44444444444444
Mairie du 11ème,48.858925,2.3789759,46,3,True,1,1970-01-01 00:00:01.697702018+00:00,True,1,1,51,11024,2023-10-19 08:13:58.495000+00:00,90.19607843137256
Auguste Cain - Jean Moulin,48.82577028927573,2.321041524410248,40,0,False,0,1970-01-01 00:00:01.697701692+00:00,False,1,1,40,14136,2023-10-19 08:13:57.719000+00:00,100.0
Volontaire - Lecourbe,48.8435137879902,2.3065522313117985,29,2,True,1,1970-01-01 00:00:01.697702093+00:00,True,1,1,31,15013,2023-10-19 08:13:58.208000+00:00,93.54838709677419
Lakanal - Commerce,48.84442462786544,2.294059172272682,51,1,True,0,1970-01-01 00:00:01.697701990+00:00,True,1,1,53,15034,2023-10-19 08:13:58.273000+00:00,96.22641509433963
Miromesnil - La Boétie,48.87372241291653,2.315848097205162,4,30,True,12,1970-01-01 00:00:01.697702072+00:00,True,1,1,35,8025,2023-10-19 08:13:56.677000+00:00,11.428571428571429
Marseille - Beaurepaire,48.871624306962985,2.3639265082738348,48,5,False,3,1970-01-01 00:00:01.697702133+00:00,False,1,1,55,10014,2023-10-19 08:13:56.728000+00:00,87.27272727272727
Mathurins - Auber,48.872988840744,2.3294984212276,3,32,True,13,1970-01-01 00:00:01.697702229+00:00,True,1,1,36,9032,2023-10-19 08:13:58.491000+00:00,8.333333333333332
Saint-Germain - Thenard,48.850571,2.3471015,21,9,True,0,1970-01-01 00:00:01.697701999+00:00,True,1,1,31,5123,2023-10-19 08:13:57.797000+00:00,67.74193548387096
Square d'Anvers,48.882633484311,2.3448844062122,31,1,True,0,1970-01-01 00:00:01.697701863+00:00,True,1,1,33,9005,2023-10-19 08:13:58.101000+00:00,93.93939393939394
Arago - Glacière,48.83486054775774,2.3445770524322067,26,1,True,1,1970-01-01 00:00:01.697701926+00:00,True,1,1,27,13002,2023-10-19 08:13:58.536000+00:00,96.29629629629629
Mairie d'Ivry-sur-Seine,48.81057120969284,2.384282648563385,34,19,False,2,1970-01-01 00:00:01.697702133+00:00,False,1,1,53,42010,2023-10-19 08:13:57.184000+00:00,64.15094339622641
Parc Georges Brassens - Brancion,48.83227829269761,2.3022570088505745,29,0,True,0,1970-01-01 00:00:01.697702048+00:00,True,1,1,29,15046,2023-10-19 08:13:58.257000+00:00,100.0
Parmentier - Abel Rabaud,48.86921273836114,2.371688821240712,48,3,True,2,1970-01-01 00:00:01.697702226+00:00,True,1,1,52,11035,2023-10-19 08:13:58.677000+00:00,92.3076923076923
Place Paul Eluard,48.7672039733195,2.4144977331161503,6,13,True,4,1970-01-01 00:00:01.697702224+00:00,True,1,1,19,46001,2023-10-19 08:13:56.552000+00:00,31.57894736842105
Exelmans - Michel-Ange,48.84309486651855,2.2597770800669053,20,13,True,1,1970-01-01 00:00:01.697702133+00:00,True,1,1,33,16040,2023-10-19 08:13:58.186000+00:00,60.60606060606061
Pierret - Madrid,48.882976576876565,2.260125767248034,2,25,True,14,1970-01-01 00:00:01.697702085+00:00,True,1,1,28,22006,2023-10-19 08:13:58.235000+00:00,7.142857142857142
Reims - Raymond Pitet,48.8888,2.296319,28,8,False,2,1970-01-01 00:00:01.697702231+00:00,False,1,1,37,17028,2023-10-19 08:13:57.523000+00:00,75.67567567567568
Saint-Vincent - Verdun,48.819211549234495,2.254007756710053,7,25,False,5,1970-01-01 00:00:01.697702230+00:00,False,1,1,34,21301,2023-10-19 08:13:58.507000+00:00,20.588235294117645
Grand Prieuré - Crussol,48.864660627935,2.3692265531829,47,1,False,1,1970-01-01 00:00:01.697702151+00:00,False,1,1,49,11042,2023-10-19 08:13:58.493000+00:00,95.91836734693877
Claude Debussy - Marc Bloch,48.910388180512,2.3117771744728,12,41,False,8,1970-01-01 00:00:01.697702219+00:00,False,1,1,56,21112,2023-10-19 08:13:57.345000+00:00,21.428571428571427
Aristide Briand - Gare de Bagneux,48.79387269664978,2.321148812770844,18,4,True,4,1970-01-01 00:00:01.697702218+00:00,True,1,1,22,42302,2023-10-19 08:13:58.485000+00:00,81.81818181818183
Parc Roger Salengro,48.905303858642,2.31055945158,25,5,False,4,1970-01-01 00:00:01.697702+00:00,False,1,1,35,21110,2023-10-19 08:13:58.262000+00:00,71.42857142857143
Seine - Flandre,48.88678574147968,2.3746193200349808,16,2,True,1,1970-01-01 00:00:01.697702096+00:00,True,1,1,19,19029,2023-10-19 08:13:57.373000+00:00,84.21052631578947
Hautpoul - Jean Jaurès,48.886393679436,2.3865414544355,27,2,True,1,1970-01-01 00:00:01.697702223+00:00,True,1,1,32,19016,2023-10-19 08:13:58.445000+00:00,84.375
Chemin Vert - Fraternité,48.87714120835904,2.4461565166711807,17,0,False,0,1970-01-01 00:00:01.697702070+00:00,False,1,1,20,32302,2023-10-19 08:13:58.553000+00:00,85.0
Laumière - Petit,48.88467368538326,2.380039058625698,31,0,True,0,1970-01-01 00:00:01.697702194+00:00,True,1,1,34,19013,2023-10-19 08:13:57.293000+00:00,91.17647058823529
Wilson - Métallurgie,48.909423010092326,2.3584435880184174,12,13,False,3,1970-01-01 00:00:01.697702187+00:00,False,1,1,28,32003,2023-10-19 08:13:58.654000+00:00,42.857142857142854
Madame de Sanzillon - Mozart,48.90379820774301,2.3187401890754704,6,13,True,3,1970-01-01 00:00:01.697702151+00:00,True,1,1,22,21104,2023-10-19 08:13:58.574000+00:00,27.27272727272727
Mairie du 7ème,48.8577967,2.3192664,1,26,False,14,1970-01-01 00:00:01.697702185+00:00,False,1,1,27,7102,2023-10-19 08:13:56.539000+00:00,3.7037037037037033
Charonne - Faubourg Saint-Antoine,48.852191909696,2.3740932717919,19,14,True,7,1970-01-01 00:00:01.697702213+00:00,True,1,1,34,11004,2023-10-19 08:13:58.858000+00:00,55.88235294117647
Gare Routière de Saint Cloud,48.84288183896324,2.222245037555695,16,14,True,5,1970-01-01 00:00:01.697702190+00:00,True,1,1,31,22101,2023-10-19 08:13:58.847000+00:00,51.61290322580645
Gare Arcueil - Cachan,48.799824,2.328171,5,21,True,4,1970-01-01 00:00:01.697702213+00:00,True,1,1,26,42301,2023-10-19 08:13:57.977000+00:00,19.230769230769234
Raspail - Bac,48.855628721101,2.3256602883339,1,49,True,16,1970-01-01 00:00:01.697702206+00:00,True,1,1,52,7005,2023-10-19 08:13:56.458000+00:00,1.9230769230769231
Gare RER de Gentilly,48.814280450380224,2.341034710407257,26,3,False,3,1970-01-01 00:00:01.697701809+00:00,False,1,1,30,42504,2023-10-19 08:13:56.602000+00:00,86.66666666666667
Boyer - Ménilmontant,48.868895162679,2.3919824145635,0,0,False,0,1970-01-01 00:00:01.526882385+00:00,False,0,0,19,20121,2023-10-19 08:13:58.409000+00:00,0.0
Aristide Briand - Place de la Résistance,48.82124248401006,2.2511002421379094,7,22,True,2,1970-01-01 00:00:01.697702198+00:00,True,1,1,25,21302,2023-10-19 08:13:56.666000+00:00,28.000000000000004
Place Jean Ferrat,48.8184945213025,2.3744174838066106,18,7,False,5,1970-01-01 00:00:01.697702204+00:00,False,1,1,25,42015,2023-10-19 08:13:57.417000+00:00,72.0
Villiers de l'Isle Adam - Pyrénées,48.867362,2.396222,20,0,False,0,1970-01-01 00:00:01.697701664+00:00,False,1,1,20,20111,2023-10-19 08:13:57.933000+00:00,100.0
Saint Georges - d'Aumale,48.87778639599673,2.337429821491241,18,5,True,2,1970-01-01 00:00:01.697701981+00:00,True,1,1,23,9021,2023-10-19 08:13:58.625000+00:00,78.26086956521739
Stalingrad - Désiré Chevalier,48.85670169739857,2.445072233676911,34,7,False,4,1970-01-01 00:00:01.697702149+00:00,False,1,1,42,31010,2023-10-19 08:13:58.244000+00:00,80.95238095238095
Porte d'Ivry,48.82176874759649,2.3688706755638127,44,4,False,3,1970-01-01 00:00:01.697702192+00:00,False,1,1,50,13041,2023-10-19 08:13:58.165000+00:00,88.0
Victor Hugo - Ecoles,48.80476007936134,2.4180373930262093,14,10,True,1,1970-01-01 00:00:01.697702181+00:00,True,1,1,25,41402,2023-10-19 08:13:58.661000+00:00,56.00000000000001
Hôpital Bégin,48.84571672113014,2.4272462725639348,8,18,True,8,1970-01-01 00:00:01.697702125+00:00,True,1,1,26,43003,2023-10-19 08:13:58.200000+00:00,30.76923076923077
Belleville - Couronnes,48.868831082877,2.3809862136841,49,0,True,0,1970-01-01 00:00:01.697702139+00:00,True,1,1,50,20039,2023-10-19 08:13:58.695000+00:00,98.0
Charenton - Diderot,48.846171461187,2.3793068155646,14,4,True,1,1970-01-01 00:00:01.697702210+00:00,True,1,1,18,12009,2023-10-19 08:13:57.741000+00:00,77.77777777777779
Stephenson - Doudeauville,48.888537048944826,2.356161028146744,32,1,True,0,1970-01-01 00:00:01.697702142+00:00,True,1,1,36,18012,2023-10-19 08:13:58.328000+00:00,88.88888888888889
Jules Ferry - Faubourg du Temple Paris,48.868397,2.3678933,53,2,True,0,1970-01-01 00:00:01.697702168+00:00,True,1,1,58,11036,2023-10-19 08:13:57.875000+00:00,91.37931034482759
Place de l'Édit de Nantes,48.88879,2.3785,24,5,True,3,1970-01-01 00:00:01.697702023+00:00,True,1,1,30,19125,2023-10-19 08:13:57.843000+00:00,80.0
Anatole France - Louise Michel,48.88873214926474,2.288157641887665,29,19,True,8,1970-01-01 00:00:01.697702036+00:00,True,1,1,50,23009,2023-10-19 08:13:56.797000+00:00,57.99999999999999
Temple - Jean-Pierre Timbaud,48.86446597201,2.3660597205162,33,2,False,0,1970-01-01 00:00:01.697702169+00:00,False,1,1,36,11040,2023-10-19 08:13:58.021000+00:00,91.66666666666666
Guynemer - Séverine,48.83091743371036,2.279070653021336,4,22,True,1,1970-01-01 00:00:01.697702183+00:00,True,1,1,26,21313,2023-10-19 08:13:58.450000+00:00,15.384615384615385
Jean Macé - Faidherbe,48.85337548426,2.3828620836139,47,15,True,5,1970-01-01 00:00:01.697702231+00:00,True,1,1,63,11007,2023-10-19 08:13:58.378000+00:00,74.60317460317461
Gaston Roussel - Commune de Paris,48.89432034553156,2.432552274419542,3,26,True,17,1970-01-01 00:00:01.697702116+00:00,True,1,1,30,32303,2023-10-19 08:13:58.233000+00:00,10.0
Bienfaisance - Place de Narvik,48.87660163459077,2.3129771277308464,3,32,False,14,1970-01-01 00:00:01.697702202+00:00,False,1,1,36,8035,2023-10-19 08:13:56.629000+00:00,8.333333333333332
Montgallet - Charenton,48.842647778701,2.3861649278137,14,1,True,0,1970-01-01 00:00:01.697702043+00:00,True,1,1,16,12027,2023-10-19 08:13:58.129000+00:00,87.5
Place Jacques Madaule,48.823933787309,2.2606918215752,7,17,False,7,1970-01-01 00:00:01.697702186+00:00,False,1,1,25,21305,2023-10-19 08:13:58.488000+00:00,28.000000000000004
Bourse du Travail,48.868976638826,2.3623438552022,10,5,True,2,1970-01-01 00:00:01.697702206+00:00,True,1,1,17,10011,2023-10-19 08:13:57.812000+00:00,58.82352941176471
Jacques Callot - Mazarine,48.85528017533187,2.337574325501919,20,7,True,4,1970-01-01 00:00:01.697702093+00:00,True,1,1,28,6013,2023-10-19 08:13:58.268000+00:00,71.42857142857143
Parmentier - Hôpital Saint-Louis,48.871379874257,2.3698963836667,41,1,True,0,1970-01-01 00:00:01.697702089+00:00,True,1,1,43,10113,2023-10-19 08:13:58.283000+00:00,95.34883720930233
Richard Wallace - Place du 8 Mai 1945,48.87866794788021,2.2420343756675725,18,12,True,7,1970-01-01 00:00:01.697702172+00:00,True,1,1,30,28001,2023-10-19 08:13:57.614000+00:00,60.0
Faustin Hélie - Desbordes-Valmore,48.859403,2.276522,21,4,False,2,1970-01-01 00:00:01.697701978+00:00,False,1,1,33,16111,2023-10-19 08:13:56.605000+00:00,63.63636363636363
Quai aux Fleurs - Pont Saint-Louis,48.85291595620935,2.352195717394352,12,8,True,3,1970-01-01 00:00:01.697702172+00:00,True,1,1,21,4003,2023-10-19 08:13:58.419000+00:00,57.14285714285714
Porte de Vincennes,48.846454,2.415514,30,3,False,0,1970-01-01 00:00:01.697702216+00:00,False,1,1,33,12115,2023-10-19 08:13:58.320000+00:00,90.9090909090909
Flandre - Riquet,48.888013281448,2.3737595955229,19,1,True,1,1970-01-01 00:00:01.697702202+00:00,True,1,1,21,19005,2023-10-19 08:13:58.290000+00:00,90.47619047619048
Place de la Porte de Châtillon,48.8242469,2.3186306,50,9,True,0,1970-01-01 00:00:01.697702073+00:00,True,1,1,59,14021,2023-10-19 08:13:58.206000+00:00,84.7457627118644
Montreuil - Gonnet,48.850500564921,2.3890856287864,17,5,False,3,1970-01-01 00:00:01.697702228+00:00,False,1,1,24,11115,2023-10-19 08:13:56.950000+00:00,70.83333333333334
Dupleix - du Guesclin,48.85147910413369,2.296709530055523,37,10,True,0,1970-01-01 00:00:01.697701843+00:00,True,1,1,47,15025,2023-10-19 08:13:58.284000+00:00,78.72340425531915
Montgallet - Reuilly,48.844291,2.3896481,15,1,True,1,1970-01-01 00:00:01.697702125+00:00,True,1,1,16,12013,2023-10-19 08:13:56.648000+00:00,93.75
Varenne,48.857202661803,2.3152771219611,20,26,True,7,1970-01-01 00:00:01.697702172+00:00,True,1,1,47,7015,2023-10-19 08:13:58.742000+00:00,42.5531914893617
Place des Ternes.,48.87843863122652,2.297727763652802,42,4,True,1,1970-01-01 00:00:01.697702068+00:00,True,1,1,46,17045,2023-10-19 08:13:57.813000+00:00,91.30434782608695
Ancien Canal - Hélène Brion,48.89484799296163,2.4188338592648506,18,4,True,0,1970-01-01 00:00:01.697702050+00:00,True,1,1,23,35018,2023-10-19 08:13:56.431000+00:00,78.26086956521739
Departement - Pajol,48.88667484973018,2.3613611608743668,14,5,False,4,1970-01-01 00:00:01.697702093+00:00,False,1,1,19,18110,2023-10-19 08:13:58.500000+00:00,73.68421052631578
Boulets - Voltaire,48.85218705621,2.3890301585197,21,3,False,2,1970-01-01 00:00:01.697702224+00:00,False,1,1,24,11009,2023-10-19 08:13:58.690000+00:00,87.5
Fragonard - Porte de Clichy,48.894155633419,2.3143893107772,36,19,False,0,1970-01-01 00:00:01.697702229+00:00,False,1,1,56,17011,2023-10-19 08:13:58.289000+00:00,64.28571428571429
Lacuée - Lyon,48.849268481958,2.3704585433006,0,15,True,6,1970-01-01 00:00:01.697702168+00:00,True,1,1,16,12002,2023-10-19 08:13:57.181000+00:00,0.0
Jardin d'Acclimatation,48.87877224251047,2.270772233605385,5,27,True,4,1970-01-01 00:00:01.697702213+00:00,True,1,1,33,16121,2023-10-19 08:13:58.325000+00:00,15.151515151515152
Gare Montparnasse - René Mouchotte,48.83920384329242,2.320883944630623,32,3,True,2,1970-01-01 00:00:01.697702099+00:00,True,1,1,39,14117,2023-10-19 08:13:56.854000+00:00,82.05128205128204
Charles de Gaulle - Jean Lolive,48.8932644350857,2.4126765131950383,9,14,False,6,1970-01-01 00:00:01.697702182+00:00,False,1,1,26,35014,2023-10-19 08:13:57.223000+00:00,34.61538461538461
Paul Vaillant Couturier - Chaptal,48.893479576183,2.2775253653526,1,37,True,11,1970-01-01 00:00:01.697702199+00:00,True,1,1,39,23001,2023-10-19 08:13:58.493000+00:00,2.564102564102564
Place de la Fraternité,48.85716405838368,2.422847449779511,17,4,True,2,1970-01-01 00:00:01.697701807+00:00,True,1,1,22,31709,2023-10-19 08:13:58.391000+00:00,77.27272727272727
Vincent Auriol - Louise Weiss,48.834001935501,2.3703888058662,1,21,False,8,1970-01-01 00:00:01.697702102+00:00,False,1,1,22,13049,2023-10-19 08:13:58.576000+00:00,4.545454545454546
Gare de Laplace,48.80893199114179,2.334946095943452,41,2,True,0,1970-01-01 00:00:01.697702212+00:00,True,1,1,43,41102,2023-10-19 08:13:58.256000+00:00,95.34883720930233
Bayen - Pereire,48.881804409079656,2.2921088710427284,16,4,False,2,1970-01-01 00:00:01.697702030+00:00,False,1,1,22,17037,2023-10-19 08:13:58.547000+00:00,72.72727272727273
Quai de la Loire - Jean Jaurès,48.88339733854529,2.371074522980134,9,3,True,0,1970-01-01 00:00:01.697702231+00:00,True,1,1,16,19004,2023-10-19 08:13:57.469000+00:00,56.25
Gare de Lyon - Roland Barthes,48.84395729494058,2.3790882155299187,19,49,False,4,1970-01-01 00:00:01.697702184+00:00,False,1,1,68,12106,2023-10-19 08:13:57.968000+00:00,27.941176470588236
Route de Sèvres - Porte de Bagatelle,48.87525984132485,2.249415814876557,45,20,True,7,1970-01-01 00:00:01.697702169+00:00,True,1,1,66,16124,2023-10-19 08:13:57.612000+00:00,68.18181818181817
Commandant Rivière,48.872933,2.309796,1,26,True,8,1970-01-01 00:00:01.697702146+00:00,True,1,1,27,8033,2023-10-19 08:13:58.395000+00:00,3.7037037037037033
Gare de Pont-Cardinet,48.88713901475306,2.314494143994255,30,3,True,2,1970-01-01 00:00:01.697701780+00:00,True,1,1,34,17017,2023-10-19 08:13:57.380000+00:00,88.23529411764706
Bordier - Félix Faure,48.90390751882016,2.3830059170722966,43,4,False,1,1970-01-01 00:00:01.697702010+00:00,False,1,1,48,33003,2023-10-19 08:13:58.474000+00:00,89.58333333333334
Jussieu - Fossés Saint-Bernard,48.84718551002347,2.3534858599305157,2,37,True,5,1970-01-01 00:00:01.697702127+00:00,True,1,1,39,5021,2023-10-19 08:13:58.519000+00:00,5.128205128205128
Charonne - Avron,48.85160266522164,2.398403047037931,25,2,True,1,1970-01-01 00:00:01.697702232+00:00,True,1,1,27,20043,2023-10-19 08:13:58.291000+00:00,92.5925925925926
Félix Faure - Sadi Carnot,48.90812110228388,2.378623187541962,26,5,True,4,1970-01-01 00:00:01.697701985+00:00,True,1,1,33,33009,2023-10-19 08:13:58.582000+00:00,78.78787878787878
Square Cambronne,48.84756654526,2.3025691509247,52,6,True,2,1970-01-01 00:00:01.697702060+00:00,True,1,1,59,15010,2023-10-19 08:13:58.438000+00:00,88.13559322033898
Lemercier - Cardinet,48.89009716885175,2.317377626895905,23,1,False,1,1970-01-01 00:00:01.697702146+00:00,False,1,1,24,17111,2023-10-19 08:13:57.262000+00:00,95.83333333333334
18 juin 1940 - Buzenval,48.868807,2.185428,22,3,False,3,1970-01-01 00:00:01.697702173+00:00,False,1,1,25,25005,2023-10-19 08:13:58.123000+00:00,88.0
Porte de la Villette,48.89835196548483,2.386150136590004,18,5,True,1,1970-01-01 00:00:01.697702216+00:00,True,1,1,27,19115,2023-10-19 08:13:58.646000+00:00,66.66666666666666
Ouest - Château ,48.83617286014242,2.319392143923804,23,0,True,0,1970-01-01 00:00:01.697702018+00:00,True,1,1,23,14034,2023-10-19 08:13:58.347000+00:00,100.0
Place aux Étoiles,48.91835629408464,2.3523425683379173,7,33,True,19,1970-01-01 00:00:01.697702063+00:00,True,1,1,40,32010,2023-10-19 08:13:56.781000+00:00,17.5
Flandrin - Henri Martin,48.8643275,2.2724174,12,6,True,3,1970-01-01 00:00:01.697702176+00:00,True,1,1,18,16018,2023-10-19 08:13:58.797000+00:00,66.66666666666666
Alexandre Dumas - Voltaire,48.852888670365,2.3891476408096,59,0,False,0,1970-01-01 00:00:01.697702004+00:00,False,1,1,59,11102,2023-10-19 08:13:58.442000+00:00,100.0
Jean Colly - Tolbiac,48.827817291597846,2.3705490678548813,31,3,True,2,1970-01-01 00:00:01.697702077+00:00,True,1,1,36,13045,2023-10-19 08:13:58.406000+00:00,86.11111111111111
Pirogues de Bercy - Libourne,48.832308,2.38637,27,22,True,13,1970-01-01 00:00:01.697702085+00:00,True,1,1,49,12034,2023-10-19 08:13:58.838000+00:00,55.10204081632652
Place Jean-Baptiste Clément,48.81240466867336,2.361709177494049,25,0,False,0,1970-01-01 00:00:01.697702196+00:00,False,1,1,25,42707,2023-10-19 08:13:56.962000+00:00,100.0
Verdun - Place Henri IV,48.870797375639214,2.2277003154158592,22,1,True,0,1970-01-01 00:00:01.697701755+00:00,True,1,1,26,21502,2023-10-19 08:13:57.954000+00:00,84.61538461538461
Picpus - Louis Braille,48.839988788912,2.4005256685521,39,3,True,2,1970-01-01 00:00:01.697701952+00:00,True,1,1,44,12038,2023-10-19 08:13:57.615000+00:00,88.63636363636364
Porte d'Auteuil,48.8479394142243,2.2608396783471107,18,13,False,4,1970-01-01 00:00:01.697702064+00:00,False,1,1,33,16034,2023-10-19 08:13:57.265000+00:00,54.54545454545454
Sarrette - Général Leclerc,48.825030852925,2.3264128693982,18,3,True,1,1970-01-01 00:00:01.697701957+00:00,True,1,1,22,14019,2023-10-19 08:13:58.189000+00:00,81.81818181818183
Réunion - Avron,48.852566752033766,2.403928068708116,22,1,False,1,1970-01-01 00:00:01.697702057+00:00,False,1,1,26,20132,2023-10-19 08:13:58.428000+00:00,84.61538461538461
Bastille - Biscornet,48.851355779579,2.369220033288,33,28,True,9,1970-01-01 00:00:01.697702198+00:00,True,1,1,62,12001,2023-10-19 08:13:57.522000+00:00,53.2258064516129
Square des Saint-Simoniens,48.8701796,2.3967273,24,0,False,0,1970-01-01 00:00:01.697702015+00:00,False,1,1,25,20119,2023-10-19 08:13:58.471000+00:00,96.0
Petit - Manin,48.88650687534334,2.3938155401308374,19,3,True,3,1970-01-01 00:00:01.697701932+00:00,True,1,1,22,19019,2023-10-19 08:13:58.444000+00:00,86.36363636363636
Place des Marseillais,48.82663907252554,2.405928075313569,20,16,True,4,1970-01-01 00:00:01.697702217+00:00,True,1,1,37,42207,2023-10-19 08:13:56.487000+00:00,54.054054054054056
Gare Rosny-Bois-Perrier,48.88115023337061,2.480436824262142,20,14,True,3,1970-01-01 00:00:01.697701987+00:00,True,1,1,36,31103,2023-10-19 08:13:56.862000+00:00,55.55555555555556
Chanzy - Sud-Est,48.888912037698766,2.195632159709931,19,5,False,0,1970-01-01 00:00:01.697701714+00:00,False,1,1,25,92003,2023-10-19 08:13:57.847000+00:00,76.0
Jussieu - Guy de la Brosse,48.845665,2.355653,0,39,False,2,1970-01-01 00:00:01.697702131+00:00,False,1,1,40,5119,2023-10-19 08:13:58.449000+00:00,0.0
Gabrielle Josserand - Edouard Vaillant,48.90271566255436,2.3933270573616032,15,8,True,1,1970-01-01 00:00:01.697702232+00:00,True,1,1,25,35003,2023-10-19 08:13:57.310000+00:00,60.0
Square René Viviani - Montebello,48.851904891406384,2.347842156887055,25,5,True,2,1970-01-01 00:00:01.697702228+00:00,True,1,1,34,5121,2023-10-19 08:13:56.625000+00:00,73.52941176470588
Jean Lolive - Parc Stalingrad,48.89206174403158,2.4091735482215886,21,0,True,0,1970-01-01 00:00:01.697702169+00:00,True,1,1,22,35009,2023-10-19 08:13:56.695000+00:00,95.45454545454545
Courcelles - Place des Ternes,48.87819992892312,2.2992860188665043,29,2,False,0,1970-01-01 00:00:01.697702225+00:00,False,1,1,31,8055,2023-10-19 08:13:57.350000+00:00,93.54838709677419
Cambronne - Villa Croix Nivert,48.845847561366,2.3017574474216,52,8,False,0,1970-01-01 00:00:01.697702104+00:00,False,1,1,62,15011,2023-10-19 08:13:57.811000+00:00,83.87096774193549
Victor Hugo - Magasins Généraux,48.90328140112676,2.368072383105755,1,30,False,14,1970-01-01 00:00:01.697701921+00:00,False,1,1,34,33001,2023-10-19 08:13:57.183000+00:00,2.941176470588235
Gare Saint-Lazare - Cour du Havre,48.875674400851,2.3265598341823,32,11,True,4,1970-01-01 00:00:01.697702166+00:00,True,1,1,45,8002,2023-10-19 08:13:56.816000+00:00,71.11111111111111
Guichet - Jean Jaurès,48.90516986812904,2.3023840785026555,24,4,False,1,1970-01-01 00:00:01.697702066+00:00,False,1,1,28,21109,2023-10-19 08:13:58.849000+00:00,85.71428571428571
Claude Bernard - Arbalète,48.83976676978202,2.347510904073715,13,3,False,1,1970-01-01 00:00:01.697702015+00:00,False,1,1,17,5114,2023-10-19 08:13:58.650000+00:00,76.47058823529412
Rapp - Place du Général Gouraud,48.858102885107,2.3004072904587,0,29,True,5,1970-01-01 00:00:01.697702213+00:00,True,1,1,31,7024,2023-10-19 08:13:58.522000+00:00,0.0
Edgar Quinet - Gaité,48.84116092896631,2.32459545135498,24,1,True,1,1970-01-01 00:00:01.697702209+00:00,True,1,1,27,14001,2023-10-19 08:13:58.538000+00:00,88.88888888888889
Place Carnot,48.85593932186797,2.441531717777252,23,1,True,0,1970-01-01 00:00:01.697702151+00:00,True,1,1,25,31012,2023-10-19 08:13:58.845000+00:00,92.0
Gravelle - Route du Bac,48.824407,2.418455,42,8,True,0,1970-01-01 00:00:01.697702141+00:00,True,1,1,51,12126,2023-10-19 08:13:57.018000+00:00,82.35294117647058
René Boulanger - Lancry,48.8685433,2.3600032,52,10,True,3,1970-01-01 00:00:01.697702141+00:00,True,1,1,62,10001,2023-10-19 08:13:58.322000+00:00,83.87096774193549
Ceinture du Lac Inferieure - Saint-Cloud,48.86218070933143,2.2617871686816216,42,0,True,0,1970-01-01 00:00:01.697701701+00:00,True,1,1,42,16129,2023-10-19 08:13:58.317000+00:00,100.0
Anatole France - Jean Lolive,48.8949922,2.4253764,16,9,True,7,1970-01-01 00:00:01.697701905+00:00,True,1,1,28,35019,2023-10-19 08:13:57.096000+00:00,57.14285714285714
Boyer-Barret - Raymond Losserand,48.83329880233322,2.3173383995890617,22,1,True,1,1970-01-01 00:00:01.697701843+00:00,True,1,1,23,14104,2023-10-19 08:13:58.846000+00:00,95.65217391304348
Piat - Parc de Belleville,48.87195626635528,2.384981390278095,19,1,False,1,1970-01-01 00:00:01.697702219+00:00,False,1,1,21,20113,2023-10-19 08:13:57.793000+00:00,90.47619047619048
Lagny - Joffre,48.84930687084088,2.417949736118317,5,26,False,7,1970-01-01 00:00:01.697702224+00:00,False,1,1,31,41604,2023-10-19 08:13:56.498000+00:00,16.129032258064516
Parc Monceau,48.881077914129,2.3095492646098,4,11,False,3,1970-01-01 00:00:01.697702217+00:00,False,1,1,18,17018,2023-10-19 08:13:57.888000+00:00,22.22222222222222
Porte d'Orléans,48.8227639,2.3249313,44,2,True,0,1970-01-01 00:00:01.697702140+00:00,True,1,1,48,14018,2023-10-19 08:13:58.627000+00:00,91.66666666666666
Place Falguière,48.83629973941847,2.3104464635252957,23,0,False,0,1970-01-01 00:00:01.697701807+00:00,False,1,1,23,15017,2023-10-19 08:13:58.422000+00:00,100.0
Vignerons - Minimes,48.841486,2.430793,19,10,True,0,1970-01-01 00:00:01.697702194+00:00,True,1,1,29,43006,2023-10-19 08:13:58.582000+00:00,65.51724137931035
Emeriau - Place de Brazzaville,48.85078526167496,2.2871585190296173,12,37,True,9,1970-01-01 00:00:01.697702229+00:00,True,1,1,51,15029,2023-10-19 08:13:57.939000+00:00,23.52941176470588
Ecole Militaire - Place Joffre,48.852060203583,2.3017993569374,8,18,True,2,1970-01-01 00:00:01.697702138+00:00,True,1,1,26,7111,2023-10-19 08:13:58.834000+00:00,30.76923076923077
Gare d'Austerlitz - Quai Saint-Bernard,48.84369030864,2.3657163977623,27,0,True,0,1970-01-01 00:00:01.642540077+00:00,True,0,0,27,13104,2023-10-19 08:13:57.985000+00:00,100.0
Sommerard - Saint-Jacques,48.85031043292447,2.345015835298588,6,27,True,1,1970-01-01 00:00:01.697702189+00:00,True,1,1,34,5002,2023-10-19 08:13:58.411000+00:00,17.647058823529413
Tardieu - Chappe,48.884146759782,2.341845408082,18,0,False,0,1970-01-01 00:00:01.697701853+00:00,False,1,1,18,18005,2023-10-19 08:13:58.697000+00:00,100.0
Petites Ecuries - Faubourg Poissonnière,48.87397217237368,2.348388757504776,10,6,False,3,1970-01-01 00:00:01.697702144+00:00,False,1,1,17,10005,2023-10-19 08:13:58.191000+00:00,58.82352941176471
Gare de Bercy,48.839794573906,2.3826066032052,24,9,True,1,1970-01-01 00:00:01.697702225+00:00,True,1,1,35,12024,2023-10-19 08:13:57.436000+00:00,68.57142857142857
Pierre Ginier - Clichy,48.8867667,2.326228,13,1,True,1,1970-01-01 00:00:01.697701980+00:00,True,1,1,16,18045,2023-10-19 08:13:58.323000+00:00,81.25
Batignolles - Place de Clichy,48.883474535757,2.326493114233,44,2,True,1,1970-01-01 00:00:01.697702192+00:00,True,1,1,47,8012,2023-10-19 08:13:58.240000+00:00,93.61702127659575
Francoeur - Marcadet,48.89104123261663,2.340014585442034,17,2,True,2,1970-01-01 00:00:01.697701994+00:00,True,1,1,20,18020,2023-10-19 08:13:58.410000+00:00,85.0
Henri Chevreau - Couronnes,48.87033205312931,2.388777695596218,26,1,True,0,1970-01-01 00:00:01.697702207+00:00,True,1,1,27,20136,2023-10-19 08:13:57.859000+00:00,96.29629629629629
Pascal - Claude Bernard,48.83906195215975,2.349978201091289,39,3,True,0,1970-01-01 00:00:01.697702107+00:00,True,1,1,49,5026,2023-10-19 08:13:58.100000+00:00,79.59183673469387
Place Valhubert,48.844182577315,2.3640366643667,19,17,True,3,1970-01-01 00:00:01.697702020+00:00,True,1,1,37,5116,2023-10-19 08:13:58.085000+00:00,51.35135135135135
Lamennais - Washington ,48.87352990026496,2.303444892168045,1,22,False,14,1970-01-01 00:00:01.697702155+00:00,False,1,1,26,8102,2023-10-19 08:13:56.456000+00:00,3.8461538461538463
Lauriston - Copernic,48.86926,2.289918,7,8,False,6,1970-01-01 00:00:01.697702167+00:00,False,1,1,19,16006,2023-10-19 08:13:58.405000+00:00,36.84210526315789
Pierre Grenier - Pont de Billancourt,48.8258020742942,2.2487989068031315,18,2,False,0,1970-01-01 00:00:01.697701908+00:00,False,1,1,21,21013,2023-10-19 08:13:58.857000+00:00,85.71428571428571
Vasco de Gama,48.83671783466264,2.283664085650799,18,34,False,4,1970-01-01 00:00:01.697702223+00:00,False,1,1,54,15055,2023-10-19 08:13:58.859000+00:00,33.33333333333333
Bineau - Louise Michel,48.88666162207,2.2843274474144,0,0,False,0,1970-01-01 00:00:01.688614813+00:00,False,0,0,0,23011,2023-10-19 08:13:58.581000+00:00,
Professeur René Leriche - Général Leclerc ,48.90782845483013,2.307887971401215,19,31,True,1,1970-01-01 00:00:01.697702177+00:00,True,1,1,50,21111,2023-10-19 08:13:56.555000+00:00,38.0
Bara - Henri Farman,48.833218027457846,2.2677567601203923,1,34,False,15,1970-01-01 00:00:01.697702197+00:00,False,1,1,36,21308,2023-10-19 08:13:58.353000+00:00,2.7777777777777777
Carrefour Pleyel,48.92034156960326,2.3438543826341625,0,51,True,25,1970-01-01 00:00:01.697702178+00:00,True,1,1,36,32012,2023-10-19 08:13:58.182000+00:00,0.0
Navier - Epinettes,48.89587780769155,2.3226776719093327,34,1,True,1,1970-01-01 00:00:01.697702230+00:00,True,1,1,36,17007,2023-10-19 08:13:58.545000+00:00,94.44444444444444
Ledru-Rollin - Charonne,48.85345855607243,2.3772463581947094,25,6,False,2,1970-01-01 00:00:01.697702196+00:00,False,1,1,32,11114,2023-10-19 08:13:57.488000+00:00,78.125
Parc de Belleville - Julien Lacroix,48.8703459,2.3842214,25,1,False,1,1970-01-01 00:00:01.697701911+00:00,False,1,1,26,20040,2023-10-19 08:13:58.776000+00:00,96.15384615384616
Gare de l'Est - Verdun,48.876156054271,2.3609149083206,12,1,False,0,1970-01-01 00:00:01.697702129+00:00,False,1,1,14,10023,2023-10-19 08:13:58.694000+00:00,85.71428571428571
Charenton - Place du Col Bourgoin,48.844867319554,2.3825789350545,31,1,True,1,1970-01-01 00:00:01.697702224+00:00,True,1,1,35,12011,2023-10-19 08:13:57.053000+00:00,88.57142857142857
Morice - Général Leclerc,48.90245471981591,2.3128929734230046,19,6,False,3,1970-01-01 00:00:01.697702051+00:00,False,1,1,25,21105,2023-10-19 08:13:57.878000+00:00,76.0
Lucien Sampaix - Récollets,48.87433037756048,2.3621229082345963,43,3,True,2,1970-01-01 00:00:01.697702049+00:00,True,1,1,46,10015,2023-10-19 08:13:58.458000+00:00,93.47826086956522
Place Jean Delay,48.823316,2.354336,31,2,False,0,1970-01-01 00:00:01.697701888+00:00,False,1,1,35,13026,2023-10-19 08:13:58.464000+00:00,88.57142857142857
Pont de Levallois-bécon ,48.8984179,2.2791311,15,34,True,14,1970-01-01 00:00:01.697702169+00:00,True,1,1,50,23002,2023-10-19 08:13:57.879000+00:00,30.0
Place Violet,48.84487893836502,2.2905756533145905,28,1,False,1,1970-01-01 00:00:01.697702194+00:00,False,1,1,30,15033,2023-10-19 08:13:56.929000+00:00,93.33333333333333
Jonquoy - Didot,48.82890454823947,2.31648076325655,27,2,False,0,1970-01-01 00:00:01.697701881+00:00,False,1,1,30,14130,2023-10-19 08:13:58.421000+00:00,90.0
Place du Général de Gaulle,48.8525288,2.4877332,10,17,True,13,1970-01-01 00:00:01.697701960+00:00,True,1,1,28,41207,2023-10-19 08:13:58.349000+00:00,35.714285714285715
Quai Voltaire,48.858942986179,2.3314182047146,0,29,True,8,1970-01-01 00:00:01.697701940+00:00,True,1,1,32,7006,2023-10-19 08:13:58.521000+00:00,0.0
Dunois - Clisson,48.832294,2.3674523,45,4,True,2,1970-01-01 00:00:01.697702046+00:00,True,1,1,51,13043,2023-10-19 08:13:58.424000+00:00,88.23529411764706
Edouard Vaillant - Paul-Adolphe Souriau,48.83484585882868,2.247945964336396,4,23,False,4,1970-01-01 00:00:01.697702174+00:00,False,1,1,28,21019,2023-10-19 08:13:57.194000+00:00,14.285714285714285
Michelet - Assas,48.84274150283194,2.335021197795868,2,15,False,9,1970-01-01 00:00:01.697702211+00:00,False,1,1,18,6018,2023-10-19 08:13:58.386000+00:00,11.11111111111111
Porte Dorée,48.8354337,2.4077132,24,11,True,2,1970-01-01 00:00:01.697702124+00:00,True,1,1,36,12032,2023-10-19 08:13:58.430000+00:00,66.66666666666666
Félix Faure - Lourmel,48.83868901709515,2.2818081825971603,24,32,True,3,1970-01-01 00:00:01.697702231+00:00,True,1,1,58,15032,2023-10-19 08:13:57.961000+00:00,41.37931034482759
Belleville - Porte des Lilas,48.87660391892763,2.404769691129476,31,1,False,0,1970-01-01 00:00:01.697702224+00:00,False,1,1,32,19037,2023-10-19 08:13:56.829000+00:00,96.875
Haxo - Surmelin,48.8694370761222,2.40539657537972,19,0,False,0,1970-01-01 00:00:01.697702153+00:00,False,1,1,21,20109,2023-10-19 08:13:57.248000+00:00,90.47619047619048
Gare de l'Est - Place du 11 Novembre 1918,48.876327,2.3585464,37,2,True,1,1970-01-01 00:00:01.697702162+00:00,True,1,1,40,10165,2023-10-19 08:13:58.689000+00:00,92.5
Porte de Clignancourt.,48.897488,2.343996,46,8,True,4,1970-01-01 00:00:01.697702195+00:00,True,1,1,56,18032,2023-10-19 08:13:58.276000+00:00,82.14285714285714
Primo Levi - Frigos,48.83094844846017,2.37965351592796,2,31,True,8,1970-01-01 00:00:01.697702225+00:00,True,1,1,34,13016,2023-10-19 08:13:58.217000+00:00,5.88235294117647
Place Alphonse Deville,48.850188262662,2.3275961726904,10,13,False,5,1970-01-01 00:00:01.697702222+00:00,False,1,1,23,6107,2023-10-19 08:13:56.936000+00:00,43.47826086956522
Hôtel de Ville d'Argenteuil,48.946504,2.2496396,22,8,True,1,1970-01-01 00:00:01.697702199+00:00,True,1,1,30,51003,2023-10-19 08:13:56.923000+00:00,73.33333333333333
Mézières - Rennes ,48.85023459321703,2.3303819820284843,46,8,True,6,1970-01-01 00:00:01.697702226+00:00,True,1,1,55,6103,2023-10-19 08:13:56.801000+00:00,83.63636363636363
Place Adolphe Cherioux - Vaugirard,48.83959442800459,2.3010657727718358,60,3,True,3,1970-01-01 00:00:01.697702148+00:00,True,1,1,63,15038,2023-10-19 08:13:57.801000+00:00,95.23809523809523
Charles de Gaulle - Madrid,48.884432270368,2.2608044743538,1,20,True,12,1970-01-01 00:00:01.697702108+00:00,True,1,1,22,22005,2023-10-19 08:13:58.088000+00:00,4.545454545454546
Tanger - Place du Maroc,48.8862524447104,2.3689296841621403,15,1,False,0,1970-01-01 00:00:01.697702231+00:00,False,1,1,19,19109,2023-10-19 08:13:57.552000+00:00,78.94736842105263
Ménilmontant - Pelleport,48.87068263384462,2.398959602331646,18,1,False,1,1970-01-01 00:00:01.697702149+00:00,False,1,1,19,20036,2023-10-19 08:13:58.323000+00:00,94.73684210526315
Vincennes - Douy-Delcupe,48.85493692155721,2.436049282550812,36,2,False,1,1970-01-01 00:00:01.697702085+00:00,False,1,1,38,31019,2023-10-19 08:13:58.357000+00:00,94.73684210526315
Place du Cornillon - Stade de France,48.92540695835961,2.3644426837563515,26,7,True,2,1970-01-01 00:00:01.697702130+00:00,True,1,1,34,32014,2023-10-19 08:13:58.302000+00:00,76.47058823529412
Belfort - Voltaire,48.8563358,2.3829901,32,6,True,2,1970-01-01 00:00:01.697702225+00:00,True,1,1,39,11020,2023-10-19 08:13:57.351000+00:00,82.05128205128204
Porte de Saint-Ouen - Henri Huchard,48.89870836636506,2.3295360803604126,5,14,False,2,1970-01-01 00:00:01.697702180+00:00,False,1,1,26,17124,2023-10-19 08:13:57.405000+00:00,19.230769230769234
Place du Maréchal Juin - Péreire,48.885263,2.298286,37,4,True,1,1970-01-01 00:00:01.697702122+00:00,True,1,1,46,17027,2023-10-19 08:13:57.333000+00:00,80.43478260869566
Victoria - Place du Chatelet,48.857992591527,2.3469167947769,10,10,True,6,1970-01-01 00:00:01.697702109+00:00,True,1,1,22,1002,2023-10-19 08:13:58.460000+00:00,45.45454545454545
Vinaigriers - Magenta,48.8731167,2.3593052,18,5,True,3,1970-01-01 00:00:01.697702192+00:00,True,1,1,25,10012,2023-10-19 08:13:56.983000+00:00,72.0
République - Danton,48.85249172181667,2.462034523487091,18,0,False,0,1970-01-01 00:00:01.697702133+00:00,False,1,1,20,41204,2023-10-19 08:13:57.795000+00:00,90.0
Colonel Monteil - Brune,48.82650293311,2.3092747998272,14,4,False,0,1970-01-01 00:00:01.697702186+00:00,False,1,1,19,14122,2023-10-19 08:13:58.831000+00:00,73.68421052631578
Gare d'Asnières sur Seine,48.90636459217474,2.283506691455841,15,7,True,1,1970-01-01 00:00:01.697702122+00:00,True,1,1,24,26001,2023-10-19 08:13:58.451000+00:00,62.5
Verdun - Adrien Damalix,48.8222334178559,2.4215328320860863,22,3,True,1,1970-01-01 00:00:01.697701941+00:00,True,1,1,26,44102,2023-10-19 08:13:58.616000+00:00,84.61538461538461
Milton - Manuel,48.878249,2.341181,20,1,False,1,1970-01-01 00:00:01.697702125+00:00,False,1,1,22,9115,2023-10-19 08:13:58.311000+00:00,90.9090909090909
Edouard Pailleron - Simon Bolivar ,48.87979886049996,2.374839261174202,23,1,False,0,1970-01-01 00:00:01.697701843+00:00,False,1,1,24,19039,2023-10-19 08:13:58.743000+00:00,95.83333333333334
Mac-Mahon - Brey,48.877532084130166,2.294512536052928,20,4,True,2,1970-01-01 00:00:01.697702137+00:00,True,1,1,25,17046,2023-10-19 08:13:58.547000+00:00,80.0
Eglise d'Auteuil,48.84749841771691,2.26848387135299,8,12,False,4,1970-01-01 00:00:01.697702188+00:00,False,1,1,21,16032,2023-10-19 08:13:58.395000+00:00,38.095238095238095
Lepic - Armée d'Orient,48.88753640381415,2.334307730197907,23,1,False,1,1970-01-01 00:00:01.697701958+00:00,False,1,1,24,18113,2023-10-19 08:13:58.089000+00:00,95.83333333333334
Jean Jaurès - Jean Baptiste Clément ,48.84576261454011,2.236965000629425,10,14,True,5,1970-01-01 00:00:01.697702133+00:00,True,1,1,24,21003,2023-10-19 08:13:58.707000+00:00,41.66666666666667
Château - Bineau,48.890404028589806,2.270106375217438,16,7,True,1,1970-01-01 00:00:01.697701962+00:00,True,1,1,23,22001,2023-10-19 08:13:58.495000+00:00,69.56521739130434
Courcelles - Pierre Demours,48.883769733273496,2.29858466343129,22,3,True,0,1970-01-01 00:00:01.697702019+00:00,True,1,1,26,17047,2023-10-19 08:13:58.232000+00:00,84.61538461538461
Mairie du 18ème,48.892939296937605,2.344551086425781,32,3,True,1,1970-01-01 00:00:01.697702229+00:00,True,1,1,40,18025,2023-10-19 08:13:58.551000+00:00,80.0
Bridaine - Lamandé,48.8862074,2.3206239,27,2,False,2,1970-01-01 00:00:01.697702009+00:00,False,1,1,29,17122,2023-10-19 08:13:57.025000+00:00,93.10344827586206
Porte de Ménilmontant,48.8691543609174,2.40932246879487,15,0,False,0,1970-01-01 00:00:01.697701662+00:00,False,1,1,15,20027,2023-10-19 08:13:58.452000+00:00,100.0
Laffitte - Italiens,48.871815737396,2.3372015478451,8,25,False,9,1970-01-01 00:00:01.697702001+00:00,False,1,1,33,9023,2023-10-19 08:13:57.356000+00:00,24.242424242424242
Place Lafayette,48.829654975522,2.2638675570488,4,57,True,16,1970-01-01 00:00:01.697702200+00:00,True,1,1,62,21306,2023-10-19 08:13:56.691000+00:00,6.451612903225806
Indre - Prairies,48.86254398506782,2.403290458023548,37,1,False,1,1970-01-01 00:00:01.697702093+00:00,False,1,1,38,20021,2023-10-19 08:13:57.964000+00:00,97.36842105263158
Lourmel - Marie Skobtsov,48.844974,2.287283,18,4,False,1,1970-01-01 00:00:01.697702107+00:00,False,1,1,22,15108,2023-10-19 08:13:57.913000+00:00,81.81818181818183
Belleville - Télégraphe,48.8756045,2.3995549,39,1,False,1,1970-01-01 00:00:01.697702227+00:00,False,1,1,41,19040,2023-10-19 08:13:58.468000+00:00,95.1219512195122
Danton - Serpente,48.85229736258167,2.341413237154484,8,12,True,1,1970-01-01 00:00:01.697702209+00:00,True,1,1,22,6016,2023-10-19 08:13:57.903000+00:00,36.36363636363637
Cité des Sciences et de l'Industrie,48.89659571178903,2.384599149227142,26,4,True,3,1970-01-01 00:00:01.697702195+00:00,True,1,1,30,19009,2023-10-19 08:13:57.210000+00:00,86.66666666666667
Place de Verdun,48.8202823,2.473775,29,10,False,4,1970-01-01 00:00:01.697702014+00:00,False,1,1,40,43402,2023-10-19 08:13:57.899000+00:00,72.5
Square des Epinettes,48.89383909781389,2.325953990221024,15,3,False,0,1970-01-01 00:00:01.697702112+00:00,False,1,1,20,17121,2023-10-19 08:13:58.141000+00:00,75.0
Les Planètes ,48.8099849920804,2.4580853059887886,6,10,False,0,1970-01-01 00:00:01.697701834+00:00,False,1,1,16,47006,2023-10-19 08:13:58.305000+00:00,37.5
Chabrol - d'Hauteville,48.87701838803332,2.3513179644942284,0,10,False,6,1970-01-01 00:00:01.697702167+00:00,False,1,1,11,10020,2023-10-19 08:13:58.239000+00:00,0.0
Square du Carrefour de l'Insurrection,48.82086455977068,2.291113436222077,23,0,False,0,1970-01-01 00:00:01.697702232+00:00,False,1,1,23,21703,2023-10-19 08:13:58.437000+00:00,100.0
Square Saint-Ambroise,48.860934,2.375841,35,6,True,3,1970-01-01 00:00:01.697701964+00:00,True,1,1,43,11041,2023-10-19 08:13:58.413000+00:00,81.3953488372093
Hameau Fleuri - Marché,48.83144889260832,2.2412404417991643,17,5,False,0,1970-01-01 00:00:01.697701851+00:00,False,1,1,22,21014,2023-10-19 08:13:57.283000+00:00,77.27272727272727
Pajol - Riquet ,48.88960028134536,2.362853474915028,37,2,True,0,1970-01-01 00:00:01.697702220+00:00,True,1,1,47,18109,2023-10-19 08:13:56.556000+00:00,78.72340425531915
Lassus - Delouvain,48.8755044846,2.3890327325519,19,0,False,0,1970-01-01 00:00:01.697701837+00:00,False,1,1,20,19038,2023-10-19 08:13:57.251000+00:00,95.0
Emile Blemont - Poteau,48.8943782,2.3415122,38,0,True,0,1970-01-01 00:00:01.697702070+00:00,True,1,1,39,18029,2023-10-19 08:13:57.632000+00:00,97.43589743589743
Jean Bleuzen - Square du 11 Novembre,48.8232579,2.2965213,43,4,True,4,1970-01-01 00:00:01.697701950+00:00,True,1,1,49,21706,2023-10-19 08:13:56.726000+00:00,87.75510204081633
Orteaux - Mouraud,48.85558642847872,2.408762907764669,21,3,False,3,1970-01-01 00:00:01.697701718+00:00,False,1,1,24,20118,2023-10-19 08:13:58.255000+00:00,87.5
François Ponsard - La Muette ,48.8583666,2.2744515,18,5,True,3,1970-01-01 00:00:01.697702071+00:00,True,1,1,23,16021,2023-10-19 08:13:58.702000+00:00,78.26086956521739
Provence - Chaussée d'Antin,48.87428447542072,2.332976511564311,7,18,True,9,1970-01-01 00:00:01.697702160+00:00,True,1,1,25,9031,2023-10-19 08:13:57.944000+00:00,28.000000000000004
Ledru-Rollin - Place du Père Chaillet,48.8564337069437,2.379020587761426,29,5,True,3,1970-01-01 00:00:01.697702123+00:00,True,1,1,37,11006,2023-10-19 08:13:57.003000+00:00,78.37837837837837
Assas - Vaugirard,48.848274111398,2.3292413726449,4,30,False,13,1970-01-01 00:00:01.697702217+00:00,False,1,1,35,6030,2023-10-19 08:13:58.782000+00:00,11.428571428571429
Pelleport - Belgrand,48.86500081847653,2.403980836377493,15,0,False,0,1970-01-01 00:00:01.697702228+00:00,False,1,1,15,20023,2023-10-19 08:13:58.308000+00:00,100.0
Ordener - Poissonniers,48.891213890844654,2.351288666219873,31,2,True,1,1970-01-01 00:00:01.697701677+00:00,True,1,1,35,18023,2023-10-19 08:13:58.550000+00:00,88.57142857142857
Place Etienne Pernet,48.84243457133779,2.2921819612383847,38,5,True,0,1970-01-01 00:00:01.697701731+00:00,True,1,1,43,15035,2023-10-19 08:13:58.741000+00:00,88.37209302325581
Mairie du 10ème,48.872089449907,2.3575825989246,16,1,True,1,1970-01-01 00:00:01.697702217+00:00,True,1,1,19,10009,2023-10-19 08:13:57.093000+00:00,84.21052631578947
Porte d'Aubervilliers,48.89859661942376,2.3689722642302518,24,28,False,15,1970-01-01 00:00:01.697702072+00:00,False,1,1,55,18049,2023-10-19 08:13:58.552000+00:00,43.63636363636363
Sadi Carnot - François Mitterrand ,48.87532687671517,2.4241617321968083,24,2,False,2,1970-01-01 00:00:01.697701821+00:00,False,1,1,27,31703,2023-10-19 08:13:58.589000+00:00,88.88888888888889
Bellefond - Maubeuge,48.878255397645,2.3452642187476,25,4,True,0,1970-01-01 00:00:01.697701998+00:00,True,1,1,31,9117,2023-10-19 08:13:56.937000+00:00,80.64516129032258
Théâtre - Lourmel,48.8482070397636,2.2898658737540245,31,20,True,1,1970-01-01 00:00:01.697702185+00:00,True,1,1,53,15031,2023-10-19 08:13:57.281000+00:00,58.490566037735846
Aubervilliers - Curial,48.89088305227546,2.3688579350709915,8,15,True,4,1970-01-01 00:00:01.697702232+00:00,True,1,1,23,19127,2023-10-19 08:13:57.849000+00:00,34.78260869565217
Champs-Elysees - Bassano,48.871811807816,2.300238981843,25,0,True,0,1970-01-01 00:00:01.613934558+00:00,True,0,0,25,8116,2023-10-19 08:13:57.886000+00:00,100.0
Balard - Montagne de la Fage,48.83850740333351,2.278287112712861,12,23,False,12,1970-01-01 00:00:01.697702230+00:00,False,1,1,36,15070,2023-10-19 08:13:58.543000+00:00,33.33333333333333
Place Pasdeloup,48.862654215631,2.3670325062844,17,1,True,1,1970-01-01 00:00:01.697702210+00:00,True,1,1,21,11043,2023-10-19 08:13:57.088000+00:00,80.95238095238095
Méchain - Faubourg Saint-Jacques,48.83586772099485,2.33798034198275,10,6,False,4,1970-01-01 00:00:01.697701901+00:00,False,1,1,16,14112,2023-10-19 08:13:57.435000+00:00,62.5
Stade Auguste Delaune,48.80896378683884,2.4345204234123234,4,14,True,2,1970-01-01 00:00:01.697702219+00:00,True,1,1,21,47004,2023-10-19 08:13:58.191000+00:00,19.047619047619047
Maison de Radio - France,48.85132886434057,2.277785539627075,30,17,True,1,1970-01-01 00:00:01.697702187+00:00,True,1,1,47,16029,2023-10-19 08:13:58.170000+00:00,63.829787234042556
Square Léon,48.88667396788626,2.353205569088459,30,3,False,3,1970-01-01 00:00:01.697701925+00:00,False,1,1,33,18008,2023-10-19 08:13:57.023000+00:00,90.9090909090909
Jean-Baptiste Pigalle - La Bruyere,48.87939826447722,2.333709173337285,11,5,True,2,1970-01-01 00:00:01.697702133+00:00,True,1,1,17,9026,2023-10-19 08:13:57.872000+00:00,64.70588235294117
Transvaal - Charles de Gaulle ,48.848280403628806,2.2373420120857195,12,15,True,4,1970-01-01 00:00:01.697702098+00:00,True,1,1,27,21001,2023-10-19 08:13:56.969000+00:00,44.44444444444444
Belliard - Damrémont,48.89669238777841,2.338023450388167,31,2,True,0,1970-01-01 00:00:01.697701990+00:00,True,1,1,34,18033,2023-10-19 08:13:57.828000+00:00,91.17647058823529
Mozart - Jasmin,48.85286124871689,2.268483570651513,56,4,True,1,1970-01-01 00:00:01.697702207+00:00,True,1,1,62,16027,2023-10-19 08:13:57.803000+00:00,90.32258064516128
Boulets - Faubourg Saint-Antoine,48.849259262115,2.3917546141943,41,1,False,0,1970-01-01 00:00:01.697702210+00:00,False,1,1,43,11010,2023-10-19 08:13:58.381000+00:00,95.34883720930233
Haies - Réunion,48.85386896766491,2.402426162238911,21,1,False,1,1970-01-01 00:00:01.697702112+00:00,False,1,1,22,20116,2023-10-19 08:13:58.293000+00:00,95.45454545454545
Maine - Antoine Bourdelle,48.84308531746595,2.320263946784738,6,11,True,10,1970-01-01 00:00:01.697702217+00:00,True,1,1,17,15002,2023-10-19 08:13:58.803000+00:00,35.294117647058826
Kléber - Gouverneur Général Eboué,48.8268858430698,2.2723413258790965,2,20,False,2,1970-01-01 00:00:01.697702196+00:00,False,1,1,24,21310,2023-10-19 08:13:58.387000+00:00,8.333333333333332
Président Wilson - Jean Jaures,48.89034054052266,2.2920683026313786,21,4,False,4,1970-01-01 00:00:01.697701982+00:00,False,1,1,27,23007,2023-10-19 08:13:58.434000+00:00,77.77777777777779
Pyrénées - Maraîchers,48.85714001395299,2.4043509364128117,18,0,True,0,1970-01-01 00:00:01.697702082+00:00,True,1,1,19,20016,2023-10-19 08:13:58.566000+00:00,94.73684210526315
Beaujon - Wagram,48.875352455985,2.2964416444302,27,2,True,2,1970-01-01 00:00:01.697701742+00:00,True,1,1,29,8056,2023-10-19 08:13:56.511000+00:00,93.10344827586206
Place Jacques Bonsergent,48.870948218595,2.3612049221992,30,3,True,1,1970-01-01 00:00:01.697702188+00:00,True,1,1,33,10010,2023-10-19 08:13:56.522000+00:00,90.9090909090909
Naples - Rome,48.87996070084623,2.321358695626259,23,3,True,0,1970-01-01 00:00:01.697702070+00:00,True,1,1,26,8019,2023-10-19 08:13:58.548000+00:00,88.46153846153845
Place de Passy,48.85780291711202,2.277500546942199,14,1,False,0,1970-01-01 00:00:01.697702132+00:00,False,1,1,15,16043,2023-10-19 08:13:58.366000+00:00,93.33333333333333
Gare RER de Saint-Denis,48.93554324248177,2.3471488058567047,33,5,True,2,1970-01-01 00:00:01.697702197+00:00,True,1,1,40,32015,2023-10-19 08:13:57.273000+00:00,82.5
Pont Neuf - Rivoli,48.860089892617,2.344057559967,5,20,True,7,1970-01-01 00:00:01.697702195+00:00,True,1,1,27,1117,2023-10-19 08:13:58.331000+00:00,18.51851851851852
Gare du Nord - Dunkerque,48.880423508429,2.3527636751533,24,3,True,1,1970-01-01 00:00:01.697702227+00:00,True,1,1,29,10028,2023-10-19 08:13:58.230000+00:00,82.75862068965517
Lavandieres Sainte Opportune - Rivoli,48.859279702476,2.3466217517853,20,7,False,2,1970-01-01 00:00:01.697701739+00:00,False,1,1,27,1120,2023-10-19 08:13:58.303000+00:00,74.07407407407408
Musée d'Orsay,48.85972615790874,2.325860448181629,6,57,True,22,1970-01-01 00:00:01.697702197+00:00,True,1,1,65,7007,2023-10-19 08:13:57.874000+00:00,9.230769230769232
Bassano -  Iéna,48.86814451048208,2.296149600985935,11,4,False,3,1970-01-01 00:00:01.697702204+00:00,False,1,1,15,16015,2023-10-19 08:13:58.609000+00:00,73.33333333333333
Clichy - Place Blanche,48.883601088297,2.3332237824798,18,2,True,2,1970-01-01 00:00:01.697702182+00:00,True,1,1,20,18043,2023-10-19 08:13:56.976000+00:00,90.0
8 Mai 1945 - 10 Juillet 1940,48.784567029674,2.3979035764933,4,26,True,0,1970-01-01 00:00:01.697702093+00:00,True,1,1,30,44010,2023-10-19 08:13:58.187000+00:00,13.333333333333334
Diderot - Pierre Bourdan,48.847648620797,2.3902582749724,16,5,False,1,1970-01-01 00:00:01.697702096+00:00,False,1,1,21,12107,2023-10-19 08:13:57.198000+00:00,76.19047619047619
Lallier - Trudaine ,48.88109246617963,2.3408224806189537,24,2,True,2,1970-01-01 00:00:01.697702187+00:00,True,1,1,29,9017,2023-10-19 08:13:58.551000+00:00,82.75862068965517
Gare du Nord - Saint-Vincent de Paul,48.880955741648,2.3524305148385,22,0,False,0,1970-01-01 00:00:01.697702222+00:00,False,1,1,24,10033,2023-10-19 08:13:58.433000+00:00,91.66666666666666
Pereire - Place de Wagram,48.887070607581215,2.304111124531457,38,6,True,5,1970-01-01 00:00:01.697701819+00:00,True,1,1,46,17022,2023-10-19 08:13:57.642000+00:00,82.6086956521739
Traversière - Ledru-Rollin,48.850735824128805,2.375870111706245,22,10,True,2,1970-01-01 00:00:01.697702207+00:00,True,1,1,34,12004,2023-10-19 08:13:58.297000+00:00,64.70588235294117
Ménilmontant - Père Lachaise,48.863287291502,2.3869940266013,36,5,True,3,1970-01-01 00:00:01.697702218+00:00,True,1,1,41,20030,2023-10-19 08:13:58.568000+00:00,87.8048780487805
Sabot - Rennes,48.852575112948415,2.331552766263485,13,13,True,10,1970-01-01 00:00:01.697702228+00:00,True,1,1,26,6032,2023-10-19 08:13:57.962000+00:00,50.0
Palais des Sports,48.833468517426,2.2858720645308,0,17,True,2,1970-01-01 00:00:01.697702065+00:00,True,1,1,22,15107,2023-10-19 08:13:58.038000+00:00,0.0
Fontainebleau - Edmond Michelet,48.80956436844049,2.3626908659935,43,1,True,1,1970-01-01 00:00:01.697701837+00:00,True,1,1,45,42703,2023-10-19 08:13:58.665000+00:00,95.55555555555556
Hôpital Pitié Salpêtrière,48.8377016,2.3604946,43,6,True,3,1970-01-01 00:00:01.697702041+00:00,True,1,1,50,13103,2023-10-19 08:13:57.421000+00:00,86.0
Chernoviz - Raynouard,48.8569864146289,2.282173218142987,25,10,False,0,1970-01-01 00:00:01.697702191+00:00,False,1,1,37,16112,2023-10-19 08:13:57.793000+00:00,67.56756756756756
Eugène Oudiné - Dessous Des Berges,48.8256423,2.3750226,36,8,False,4,1970-01-01 00:00:01.697702182+00:00,False,1,1,44,13046,2023-10-19 08:13:58.122000+00:00,81.81818181818183
Mont Valérien - Michel Salles,48.8561915,2.2152966,23,0,True,0,1970-01-01 00:00:01.697702166+00:00,True,1,1,24,22102,2023-10-19 08:13:56.993000+00:00,95.83333333333334
Place du Moulin de Javel,48.84021670922,2.2716060653329,2,52,False,13,1970-01-01 00:00:01.697702165+00:00,False,1,1,45,15058,2023-10-19 08:13:56.528000+00:00,4.444444444444445
Batignolles - Rome,48.881823370566806,2.3202589899301524,11,2,False,2,1970-01-01 00:00:01.697701874+00:00,False,1,1,15,8051,2023-10-19 08:13:57.729000+00:00,73.33333333333333
Neuve Saint-Pierre - Beautreillis,48.85355351439652,2.3639122769236565,0,18,False,3,1970-01-01 00:00:01.697702165+00:00,False,1,1,20,4110,2023-10-19 08:13:57.149000+00:00,0.0
Alfred Roll - Berthier,48.887808570529,2.3000952981763,19,6,False,6,1970-01-01 00:00:01.697702198+00:00,False,1,1,28,17102,2023-10-19 08:13:57.535000+00:00,67.85714285714286
Pernety - Raymond Losserand,48.834254627953,2.317609339387,27,4,True,3,1970-01-01 00:00:01.697701800+00:00,True,1,1,32,14030,2023-10-19 08:13:58.540000+00:00,84.375
Gare Montparnasse - Vaugirard,48.8418071798797,2.31951002690117,52,12,False,5,1970-01-01 00:00:01.697702217+00:00,False,1,1,66,15003,2023-10-19 08:13:58.541000+00:00,78.78787878787878
Villersexel - Saint-Germain,48.858297001218,2.3237934708595,0,15,False,8,1970-01-01 00:00:01.697701978+00:00,False,1,1,16,7008,2023-10-19 08:13:58.522000+00:00,0.0
Sénat - Condé,48.84954227788459,2.337939441204071,17,16,True,6,1970-01-01 00:00:01.697702181+00:00,True,1,1,33,6017,2023-10-19 08:13:58.520000+00:00,51.515151515151516
Granges aux Belles - Hôpital Saint-Louis,48.87479499484128,2.366669436984963,54,3,True,1,1970-01-01 00:00:01.697701977+00:00,True,1,1,60,10114,2023-10-19 08:13:57.446000+00:00,90.0
Parc de Choisy,48.828156251575,2.3585135329033,0,0,False,0,1970-01-01 00:00:01.688643072+00:00,False,0,0,0,13122,2023-10-19 08:13:57.815000+00:00,
Aqueduc - Villette,48.883886063895,2.367198803315,20,3,False,0,1970-01-01 00:00:01.697702167+00:00,False,1,1,28,10036,2023-10-19 08:13:58.478000+00:00,71.42857142857143
Belleville - Pyrénées,48.8741908,2.3860039,39,1,False,0,1970-01-01 00:00:01.697702183+00:00,False,1,1,42,19041,2023-10-19 08:13:57.060000+00:00,92.85714285714286
Calmette,48.88104925098552,2.424993216991425,29,0,False,0,1970-01-01 00:00:01.697701735+00:00,False,1,1,32,32603,2023-10-19 08:13:58.293000+00:00,90.625
Billancourt - Général Leclerc ,48.8322649,2.2380413,2,19,True,6,1970-01-01 00:00:01.697702066+00:00,True,1,1,22,21024,2023-10-19 08:13:57.757000+00:00,9.090909090909092
Manin - Simon Bolivar,48.87649965412676,2.379407362599104,19,1,True,1,1970-01-01 00:00:01.697702125+00:00,True,1,1,26,19023,2023-10-19 08:13:58.554000+00:00,73.07692307692307
Greneta - Sebastopol,48.865242333228,2.3516669869423,22,9,True,2,1970-01-01 00:00:01.697702230+00:00,True,1,1,32,2001,2023-10-19 08:13:58.479000+00:00,68.75
Favart - Italiens,48.871446353921,2.3382901058508,3,13,False,4,1970-01-01 00:00:01.697702218+00:00,False,1,1,17,2013,2023-10-19 08:13:57.841000+00:00,17.647058823529413
Parvis Corentin Celton,48.82747252522725,2.2784319519996648,3,51,True,3,1970-01-01 00:00:01.697702056+00:00,True,1,1,55,21311,2023-10-19 08:13:57.999000+00:00,5.454545454545454
Parc André Citroën,48.840639944296655,2.2780618071556096,26,38,True,3,1970-01-01 00:00:01.697702177+00:00,True,1,1,65,15059,2023-10-19 08:13:58.519000+00:00,40.0
François 1er - Montaigne,48.866887649978,2.3066755757207,4,25,True,15,1970-01-01 00:00:01.697702214+00:00,True,1,1,29,8038,2023-10-19 08:13:57.659000+00:00,13.793103448275861
Roquépine - Malesherbes,48.87345073390807,2.320404499769211,0,34,True,21,1970-01-01 00:00:01.697702199+00:00,True,1,1,37,8015,2023-10-19 08:13:57.079000+00:00,0.0
Bois de Vincennes.,48.8338064,2.4132221,52,8,True,3,1970-01-01 00:00:01.697702065+00:00,True,1,1,60,12041,2023-10-19 08:13:56.616000+00:00,86.66666666666667
Surcouf - Université,48.861273016278126,2.309453550914185,1,54,True,4,1970-01-01 00:00:01.697702194+00:00,True,1,1,58,7016,2023-10-19 08:13:58.279000+00:00,1.7241379310344827
Ney - Charles Hermite,48.89874803977525,2.3645754531025887,11,9,True,5,1970-01-01 00:00:01.697702165+00:00,True,1,1,20,18138,2023-10-19 08:13:56.877000+00:00,55.00000000000001
Faubourg Poissonniere - Delta,48.882555807626765,2.3497482016682625,32,2,True,2,1970-01-01 00:00:01.697702231+00:00,True,1,1,36,9118,2023-10-19 08:13:57.809000+00:00,88.88888888888889
Saint-Amand - Labrouste,48.834097274832295,2.3087677359581,33,2,True,2,1970-01-01 00:00:01.697702045+00:00,True,1,1,36,15040,2023-10-19 08:13:58.457000+00:00,91.66666666666666
Place du Maquis du Vercors,48.877321579493575,2.4083782732486725,31,0,True,0,1970-01-01 00:00:01.697702178+00:00,True,1,1,31,20019,2023-10-19 08:13:57.422000+00:00,100.0
Jeanne Hornet - Girardot,48.87380268143215,2.427820265293122,24,1,False,1,1970-01-01 00:00:01.697702182+00:00,False,1,1,29,31704,2023-10-19 08:13:57.002000+00:00,82.75862068965517
Uzès - Montmartre,48.87079098024071,2.3431010171771054,12,15,True,5,1970-01-01 00:00:01.697702171+00:00,True,1,1,29,2010,2023-10-19 08:13:58.505000+00:00,41.37931034482759
Duroc - Place de Breteuil,48.847460641142,2.3126140236855,2,38,False,8,1970-01-01 00:00:01.697702121+00:00,False,1,1,42,7013,2023-10-19 08:13:58.014000+00:00,4.761904761904762
Vieille du Temple - Francs Bourgeois,48.858256413365815,2.35821794718504,23,5,True,1,1970-01-01 00:00:01.697702228+00:00,True,1,1,29,4013,2023-10-19 08:13:58.517000+00:00,79.3103448275862
Gare du Nord - Demarquay,48.881154,2.358411,28,2,True,0,1970-01-01 00:00:01.697702061+00:00,True,1,1,30,10163,2023-10-19 08:13:58.672000+00:00,93.33333333333333
Place François Mitterand,48.86492782016328,2.442958317697048,32,1,True,0,1970-01-01 00:00:01.697702143+00:00,True,1,1,34,31023,2023-10-19 08:13:57.470000+00:00,94.11764705882352
Hôtel de Ville de Champigny sur Marne,48.813810628405,2.5096759200096,7,14,True,0,1970-01-01 00:00:01.697702229+00:00,True,1,1,21,45001,2023-10-19 08:13:58.408000+00:00,33.33333333333333
Place Pigalle,48.8827555,2.3361566,17,4,True,2,1970-01-01 00:00:01.697702144+00:00,True,1,1,21,18042,2023-10-19 08:13:57.379000+00:00,80.95238095238095
Bastille - Beaumarchais,48.853833463852,2.3685702681541,12,11,True,1,1970-01-01 00:00:01.697702148+00:00,True,1,1,23,4101,2023-10-19 08:13:56.991000+00:00,52.17391304347826
Poissonniers - Nord,48.892511213520656,2.352222874760628,27,1,False,1,1970-01-01 00:00:01.697701938+00:00,False,1,1,28,18137,2023-10-19 08:13:57.993000+00:00,96.42857142857143
Marignan - Champs-Elysées,48.869495661232,2.3066138139003,7,26,True,15,1970-01-01 00:00:01.697702150+00:00,True,1,1,35,8013,2023-10-19 08:13:58.524000+00:00,20.0
Reims - Porte d'Asnières,48.891834448210986,2.300144659954865,8,18,False,4,1970-01-01 00:00:01.697702148+00:00,False,1,1,26,17116,2023-10-19 08:13:58.138000+00:00,30.76923076923077
Saint-Jacques - Tombe Issoire,48.833206330538864,2.33691081404686,21,2,True,1,1970-01-01 00:00:01.697702175+00:00,True,1,1,23,14006,2023-10-19 08:13:58.691000+00:00,91.30434782608695
Hôtel de Ville - Pont-Marie,48.85389964552738,2.356947250664234,26,9,True,4,1970-01-01 00:00:01.697702191+00:00,True,1,1,36,4011,2023-10-19 08:13:58.516000+00:00,72.22222222222221
Bercy.,48.839966914994,2.3788625746965,6,59,False,12,1970-01-01 00:00:01.697701999+00:00,False,1,1,66,12108,2023-10-19 08:13:58.141000+00:00,9.090909090909092
Centenaire - Sorins,48.85853523359734,2.427350878715516,43,2,False,1,1970-01-01 00:00:01.697702086+00:00,False,1,1,45,31013,2023-10-19 08:13:56.523000+00:00,95.55555555555556
Saint-Blaise - Mouraud,48.85696177597818,2.40869477391243,25,1,False,1,1970-01-01 00:00:01.697702159+00:00,False,1,1,27,20017,2023-10-19 08:13:56.621000+00:00,92.5925925925926
Romain Rolland,48.820215229662765,2.3234144234418346,21,4,False,1,1970-01-01 00:00:01.697701881+00:00,False,1,1,25,14116,2023-10-19 08:13:58.204000+00:00,84.0
Damrémont - Caulaincourt,48.88714509078738,2.332588098943233,17,0,False,0,1970-01-01 00:00:01.697701790+00:00,False,1,1,18,18001,2023-10-19 08:13:58.407000+00:00,94.44444444444444
Parmentier - Fontaine au Roi,48.86787670551736,2.372705978671471,44,2,True,1,1970-01-01 00:00:01.697702003+00:00,True,1,1,48,11034,2023-10-19 08:13:57.259000+00:00,91.66666666666666
Square Desnouettes,48.83476837934194,2.284142297394666,2,19,False,2,1970-01-01 00:00:01.697702085+00:00,False,1,1,22,15061,2023-10-19 08:13:57.844000+00:00,9.090909090909092
Brochant - Square des Batignolles ,48.88818698581028,2.316861143151153,29,1,True,1,1970-01-01 00:00:01.697701985+00:00,True,1,1,31,17016,2023-10-19 08:13:56.520000+00:00,93.54838709677419
Hôtel de Ville de Levallois Perret,48.89314451997415,2.2888818383216862,22,3,True,2,1970-01-01 00:00:01.697701889+00:00,True,1,1,26,23008,2023-10-19 08:13:58.251000+00:00,84.61538461538461
Mairie de Clichy,48.903653634661,2.3059353232384,49,2,True,0,1970-01-01 00:00:01.697702178+00:00,True,1,1,51,21108,2023-10-19 08:13:58.853000+00:00,96.07843137254902
Square Raymond Souplex,48.89183721478911,2.335426103165901,43,3,True,2,1970-01-01 00:00:01.697702225+00:00,True,1,1,52,18019,2023-10-19 08:13:58.223000+00:00,82.6923076923077
Convention - Saint-Charles,48.84315611111599,2.2831090539693832,17,0,True,0,1970-01-01 00:00:01.697702207+00:00,True,1,1,19,15063,2023-10-19 08:13:57.274000+00:00,89.47368421052632
Keller - La Roquette,48.8555508,2.3752778,29,4,False,2,1970-01-01 00:00:01.697702017+00:00,False,1,1,34,11003,2023-10-19 08:13:58.192000+00:00,85.29411764705883
